whc_id;nombre;pais;categoria;lat;lon
1246;Iwami Ginzan Silver Mine;Japan;cultural;35.107222;132.4375
1246;Iwami Ginzan Silver Mine;Japan;cultural;35.107222;132.4375
304;Canadian Rocky Mountain Parks World Heritage Site;Canada;natural;51.424722222222;-116.47972222222
304;Canadian Rocky Mountain Parks World Heritage Site;Canada;natural;51.424722222222;-116.47972222222
870;Heijō Palace;Japan;cultural;34.69111111;135.79555556
4;L'Anse aux Meadows;Canada;cultural;51.595266666667;-55.531222222222
4;L'Anse aux Meadows;Canada;cultural;51.595266666667;-55.531222222222
71;Dinosaur Provincial Park;Canada;natural;50.7617;-111.485
256;Wood Buffalo National Park;Canada;natural;59.3833;-112.983
24;Nahanni National Park Reserve;Canada;natural;61.5971;-125.852
530;Delos;Greece;cultural;37.38948;25.26904
530;Delos;Greece;cultural;37.39121;25.27122
669;León Cathedral;Spain;cultural;42.59944444;-5.56666667
1187;Struve Geodetic Arc;Norway;cultural;52.289444444444;25.649444444444
1195;Geirangerfjord;Norway;natural;62.094444444444;7.0805555555556
661;Himeji Castle;Japan;cultural;34.839444444444;134.69361111111
776;Itsukushima Shrine;Japan;cultural;34.29577;132.320105
1495;Hidden Christian Sites in the Nagasaki Region;Japan;cultural;32.802222;128.903889
1560;Madinat Al-Zahra;Spain;cultural;37.886080468889;-4.8677854722573
669;Castle of Xabier;Spain;cultural;42.594027777778;-1.2158333333333
669;Casa de la Misericordia de Pamplona;Spain;cultural;42.8086427;-1.6481812
310;Cave of Altamira;Spain;cultural;43.376944444444;-4.11975
310;Cave of Altamira;Spain;cultural;43.38333;-4.11667
310;Cave of Altamira;Spain;cultural;43.376944444444;-4.11975
310;Cave of Altamira;Spain;cultural;43.38333;-4.11667
669;Santa Colomba de Somoza;Spain;cultural;42.4425;-6.2425
312;La Foncalada;Spain;cultural;43.36530556;-5.84605556
669;Hospital de los Reyes Católicos;Spain;cultural;42.881388888889;-8.5458333333333
1133;Ancient and Primeval Beech Forests of the Carpathians and Other Regions of Europe;Spain;natural;49.0;15.0
1133;Ancient and Primeval Beech Forests of the Carpathians and Other Regions of Europe;Spain;natural;49.0;15.0
1133;Ancient and Primeval Beech Forests of the Carpathians and Other Regions of Europe;Spain;natural;49.0;15.0
1133;Ancient and Primeval Beech Forests of the Carpathians and Other Regions of Europe;Spain;natural;49.0;15.0
58;Urnes Stave Church;Norway;cultural;61.298055555556;7.3225
695;Roskilde Cathedral;Denmark;cultural;55.642669444444;12.080308333333
59;Bryggen;Norway;cultural;60.3975;5.3233333333333
1484;Hashima Island;Japan;cultural;32.627777777778;129.73833333333
1535;Sacred Island of Okinoshima and Associated Sites in the Munakata Region;Japan;cultural;34.245;130.1056
1142;Kumano Hayatama Taisha;Japan;cultural;33.732086;135.983605
264;Batalha Monastery;Portugal;cultural;39.659166666667;-8.8261111111111
757;Skellig Michael;Ireland;cultural;51.771111111111;-10.540555555556
659;Brú na Bóinne;Ireland;cultural;53.69284;-6.44932
669;Cathedral of Santiago de Compostela;Spain;cultural;42.880555555556;-8.5444444444444
669;Citadel of Pamplona;Spain;cultural;42.81194444;-1.64916667
320;Casa Milà;Spain;cultural;41.395277777778;2.1616666666667
414;Teotihuacan;Mexico;cultural;19.6925;-98.843888888889
400;;Hungary;cultural;47.51056;19.0713
430;Antonine Wall;United Kingdom;cultural;55.967;-4.067
422;Lake District;United Kingdom;cultural;54.5;-3.1666666666667
308;Yosemite National Park;United States;natural;37.7425;-119.5375
442;Monticello;United States;cultural;38.010305555556;-78.452333333333
625;Mir Castle Complex;Belarus;cultural;53.451266666667;26.472894444444
1260;Mehmed Paša Sokolović Bridge;Bosnia and Herzegovina;cultural;43.78248;19.28794
856;lifts on the old Canal du Centre;Belgium;cultural;50.4714;4.0945
1133;Ancient and Primeval Beech Forests of the Carpathians and Other Regions of Europe;Belgium;natural;49.0;15.0
1133;Ancient and Primeval Beech Forests of the Carpathians and Other Regions of Europe;Belgium;natural;49.0;15.0
1133;Ancient and Primeval Beech Forests of the Carpathians and Other Regions of Europe;Belgium;natural;49.0;15.0
1133;Ancient and Primeval Beech Forests of the Carpathians and Other Regions of Europe;Belgium;natural;49.0;15.0
85;Lascaux;France;cultural;45.049166666667;1.1761111111111
1707;Marquesas Islands;France;mixto;-8.9;-139.6
1496;Solomon R. Guggenheim Museum;United States;cultural;40.783055555556;-73.958888888889
409;Hawaiʻi Volcanoes National Park;United States;natural;19.40083;-155.12361
657;Trinity Lavra of St. Sergius;Russia;cultural;56.31035;38.13065
1553;Hedeby;Germany;cultural;54.491111111111;9.5652777777778
187;Hildesheim Cathedral;Germany;cultural;52.148889;9.947222
1422;Golestan Palace;Iran;cultural;35.679722222222;51.420277777778
387;St Kilda;United Kingdom;mixto;57.815;-8.5875
1481;Eridu;Iraq;mixto;30.81583;45.99583
804;Palau de la Música Catalana;Spain;cultural;41.387666666667;2.1752777777778
804;Palau de la Música Catalana;Spain;cultural;41.387666666667;2.1752777777778
1217;Vizcaya Bridge;Spain;cultural;43.323055555556;-3.0169444444444
310;Cave of Altxerri;Spain;cultural;43.268611111111;-2.1347222222222
669;Basilica of San Isidoro;Spain;cultural;42.60075;-5.5709444444444
669;Capela de Ánimas;Spain;cultural;42.881666666667;-8.5418055555556
669;Pamplona Cathedral;Spain;cultural;42.819722222222;-1.6411111111111
1267;Surtsey;Iceland;natural;63.3040256609;-20.6047137915
1660;Aggersborg;Denmark;cultural;56.995608250588;9.2549042690867
1187;Struve Geodetic Arc;Finland;cultural;52.289444444444;25.649444444444
1348;Dead Cities;Syria;cultural;36.33416667;36.84416667
1558;Žatec;Czech Republic;cultural;50.327264913574;13.545859487384
157;Ninstints;Canada;cultural;52.098888888889;-131.2175
419;Gros Morne National Park;Canada;natural;49.689444444444;-57.738055555556
847;Malbork Castle;Poland;cultural;54.039722222222;19.027777777778
1165;Centennial Hall;Poland;cultural;51.106944444444;17.077222222222
1133;Ancient and Primeval Beech Forests of the Carpathians and Other Regions of Europe;Poland;natural;49.0;15.0
1133;Ancient and Primeval Beech Forests of the Carpathians and Other Regions of Europe;Poland;natural;49.0;15.0
1133;Ancient and Primeval Beech Forests of the Carpathians and Other Regions of Europe;Poland;natural;49.0;15.0
1133;Ancient and Primeval Beech Forests of the Carpathians and Other Regions of Europe;Poland;natural;49.0;15.0
1127;Muskau Park;Poland;cultural;51.547559;14.723229
1187;Struve Geodetic Arc;Sweden;cultural;52.289444444444;25.649444444444
555;Birka;Sweden;cultural;59.336666666667;17.545
559;Drottningholm Palace;Sweden;cultural;59.321694;17.886383
559;Drottningholm Palace;Sweden;cultural;59.321694;17.886383
668;Angkor;Cambodia;cultural;13.433333333333;103.83333333333
307;Liberty Island;United States;cultural;40.69;-74.045
198;Cahokia;United States;cultural;38.653888888889;-90.064444444444
151;Olympic National Park;United States;natural;47.7;-123.75
78;Independence Hall;United States;cultural;39.948888888889;-75.15
251;Agra Fort;India;cultural;27.179583333333;78.021297222222
1342;Silent Valley National Park;India;natural;11.133333333333;76.466666666667
1481;Uruk;Iraq;mixto;31.3259;45.6374
276;Samarra;Iraq;cultural;34.1959;43.88568
276;Samarra;Iraq;cultural;34.1959;43.88568
91;Archbasilica of St. John Lateran;Italy;cultural;41.885905555556;12.506155555556
1133;Ancient and Primeval Beech Forests of the Carpathians and Other Regions of Europe;Italy;natural;49.0;15.0
1133;Ancient and Primeval Beech Forests of the Carpathians and Other Regions of Europe;Italy;natural;49.0;15.0
1133;Ancient and Primeval Beech Forests of the Carpathians and Other Regions of Europe;Italy;natural;49.0;15.0
1133;Ancient and Primeval Beech Forests of the Carpathians and Other Regions of Europe;Italy;natural;49.0;15.0
696;Kronborg Castle;Denmark;cultural;56.038611111111;12.621944444444
268;Abbey of Saint Gall;Switzerland;cultural;47.423055555556;9.3772222222222
1133;Ancient and Primeval Beech Forests of the Carpathians and Other Regions of Europe;Switzerland;natural;49.0;15.0
1133;Ancient and Primeval Beech Forests of the Carpathians and Other Regions of Europe;Switzerland;natural;49.0;15.0
1133;Ancient and Primeval Beech Forests of the Carpathians and Other Regions of Europe;Switzerland;natural;49.0;15.0
1133;Ancient and Primeval Beech Forests of the Carpathians and Other Regions of Europe;Switzerland;natural;49.0;15.0
33;Białowieża Forest;Poland;natural;52.75;23.95
1585;Trans-Iranian Railway;Iran;cultural;35.658305555556;51.398333333333
688;Kiyomizu-dera Temple;Japan;cultural;34.994830555556;135.78500277778
775;Hiroshima Peace Memorial;Japan;cultural;34.395555555556;132.45361111111
662;Yakushima;Japan;natural;30.358611111111;130.52861111111
688;Ginkaku-ji Temple;Japan;cultural;35.026666666667;135.79833333333
688;Kinkaku-ji Temple;Japan;cultural;35.0395;135.7285
829;Herculaneum;Italy;cultural;40.806111;14.3475
908;Aeolian Islands;Italy;natural;38.496666666667;14.935833333333
91;Basilica di Santa Maria Maggiore;Italy;cultural;41.8975;12.498611111111
175;Palazzo di Seravezza;Italy;cultural;43.993818;10.231994
1708;Appian Way;Italy;cultural;41.841389;12.5325
1237;Marmolada;Italy;natural;46.424444444444;11.85
175;Villa Medici;Italy;cultural;43.805717;11.289117
175;Villa Medici;Italy;cultural;43.759654;11.277887
1009;Tournai Cathedral;Belgium;cultural;50.606502;3.388903
1187;Struve Geodetic Arc;Lithuania;cultural;52.289444444444;25.649444444444
1096;White City;Israel;cultural;32.077777777778;34.773888888889
1229;Krak des Chevaliers;Syria;cultural;34.756944444444;36.294722222222
1133;Ancient and Primeval Beech Forests of the Carpathians and Other Regions of Europe;Austria;natural;49.0;15.0
1133;Ancient and Primeval Beech Forests of the Carpathians and Other Regions of Europe;Austria;natural;49.0;15.0
1133;Ancient and Primeval Beech Forests of the Carpathians and Other Regions of Europe;Austria;natural;49.0;15.0
1133;Ancient and Primeval Beech Forests of the Carpathians and Other Regions of Europe;Austria;natural;49.0;15.0
295;Byblos;Lebanon;cultural;34.119501;35.646846
295;Byblos;Lebanon;cultural;34.116666666667;35.65
1195;Nærøyfjord;Norway;natural;60.943611111111;6.9313888888889
788;Mausoleum of Theodoric;Italy;cultural;44.4250456;12.2091687
788;Mausoleum of Theodoric;Italy;cultural;44.424955;12.209425
1533;Palmanova Fortress;Italy;cultural;45.904971;13.310256
842;Paestum;Italy;cultural;40.422631;15.005569
842;Paestum;Italy;cultural;40.42;15.005555555556
175;Villa Medici at Careggi;Italy;cultural;43.807917;11.250282
712;City of Vicenza and the Palladian Villas of the Veneto;Italy;cultural;45.55;11.55
712;City of Vicenza and the Palladian Villas of the Veneto;Italy;cultural;45.55;11.55
1068;Sacro Monte di Oropa;Italy;cultural;45.624614;7.981322
712;Villa Saraceno;Italy;cultural;45.3125;11.56638889
1187;Aavasaksa;Finland;cultural;66.397816;23.725325
749;Arli National Park;Burkina Faso;natural;11.58361111;1.46833333
300;Old Quebec;Canada;cultural;46.809444444444;-71.210555555556
320;Park Güell;Spain;cultural;41.413611111111;2.1527777777778
383;Seville Cathedral;Spain;cultural;37.385742159631;-5.9930955622969
1312;Tower of Hercules;Spain;cultural;43.385833333333;-8.4063888888889
669;Church of Nuestra Señora de la Purificación;Spain;cultural;42.79163889;-1.71788889
1018;House of the Virgin Mary;Turkey;cultural;37.911527777778;27.333972222222
404;Acropolis of Athens;Greece;cultural;37.971666666667;23.726111111111
941;Mycenae;Greece;cultural;37.730833333333;22.756111111111
1484;Shōkasonjuku Academy;Japan;cultural;34.412169;131.417344
739;Schokland;Netherlands;cultural;52.638611111111;5.7716666666667
87;Thebes;Egypt;cultural;25.720555555556;32.610277777778
88;Abu Simbel;Egypt;cultural;22.336944444444;31.625555555556
669;;Spain;cultural;42.27833333;-4.24555556
988;Sant Climent de Taüll;Spain;cultural;42.517222222222;0.84833333333333
320;Church of Colònia Güell;Spain;cultural;41.363797;2.027847
669;Santo Tomás de las Ollas;Spain;cultural;42.554694444444;-6.5794166666667
669;Monastery of Santo Toribio de Liébana;Spain;cultural;43.150333;-4.654339
417;Ses Salines Natural Park;Spain;mixto;38.8;1.42611111
805;Monasteries of San Millán de la Cogolla;Spain;cultural;42.325833333333;-2.86505
442;University of Virginia;United States;cultural;38.035555555556;-78.503333333333
75;Grand Canyon National Park;United States;natural;36.0553;-112.122
27;Mesa Verde National Park;United States;cultural;37.260375;-108.494444
150;Mammoth Cave National Park;United States;natural;37.186944444444;-86.101111111111
492;Taos Pueblo;United States;cultural;36.43889;-105.54167
151;Olympic Mountains;United States;natural;47.833333333333;-123.83333333333
721;Carlsbad Caverns National Park;United States;natural;32.175277777778;-104.44388888889
76;Everglades National Park;United States;natural;25.3125;-80.6875
1517;Philippi;Greece;cultural;41.013056;24.286389
1517;Philippi;Greece;cultural;41.012072;24.284576
404;Temple of Athena Nike;Greece;cultural;37.9715;23.7249
87;Luxor Temple;Egypt;cultural;25.7;32.639166666667
970;Wachau;Austria;cultural;48.36444;15.43417
931;Eggenberg Castle, Graz;Austria;cultural;47.0739;15.3913
1179;Glarus thrust;Switzerland;natural;46.91667;9.25
978;Corfu;Greece;cultural;39.623888888889;19.921388888889
1250;Ciudad Universitaria;Mexico;cultural;19.33222222;-99.18805556
162;Notre-Dame d'Amiens;France;cultural;49.89457;2.3021
868;Notre-Dame d'Amiens;France;cultural;49.89457;2.3021
162;Notre-Dame d'Amiens;France;cultural;49.89457;2.3021
85;Cap Blanc rock shelter;France;cultural;44.9456;1.09694
1133;Ancient and Primeval Beech Forests of the Carpathians and Other Regions of Europe;France;natural;49.0;15.0
1133;Ancient and Primeval Beech Forests of the Carpathians and Other Regions of Europe;France;natural;49.0;15.0
1133;Ancient and Primeval Beech Forests of the Carpathians and Other Regions of Europe;France;natural;49.0;15.0
1133;Ancient and Primeval Beech Forests of the Carpathians and Other Regions of Europe;France;natural;49.0;15.0
791;Kabah;Mexico;cultural;20.248425;-89.647297222222
377;Hattusa;Turkey;cultural;40.019722222222;34.615277777778
1366;Selimiye Mosque;Turkey;cultural;41.678056;26.559444
1405;Çatalhöyük;Turkey;cultural;37.6675;32.828333333333
448;Mount Nemrut;Turkey;cultural;37.980738888889;38.740830555556
1496;Hollyhock House;United States;cultural;34.099957;-118.294315
1466;Mission Concepcion;United States;cultural;29.39069104;-98.4901422
1466;Mission Concepcion;United States;cultural;29.3903;-98.4918
1295;Fort Jesus Museum;Kenya;cultural;-4.0711666666667;39.682055555556
369;Giant's Causeway;United Kingdom;natural;55.240833333333;-6.5116666666667
411;Palenque;Mexico;cultural;17.484166666667;-92.046388888889
85;Cro-Magnon rock shelter;France;cultural;44.940277777778;1.0097222222222
868;Cadouin Abbey;France;cultural;44.811527777778;0.87375
868;Grande-Sauve Abbey;France;cultural;44.768677777778;-0.31178055555556
868;abbaye Saint-Jean de Sorde;France;cultural;43.528888888889;-1.0547222222222
868;Saint-Sever Abbey;France;cultural;43.759722222222;-0.57416666666667
868;Abbey of Saint-Gilles;France;cultural;43.676777777778;4.4323333333333
1426;Chauvet Cave;France;cultural;44.3881219;4.4161408
345;Cité de Carcassonne;France;cultural;43.206439;2.363788
345;Cité de Carcassonne;France;cultural;43.206439;2.363788
1360;northern French coal mining region;France;cultural;50.4625;3.54611
943;Belfry of Nieuwpoort;Belgium;cultural;51.12917;2.75208
943;Mechelen City Hall;Belgium;cultural;51.02778;4.48111
1133;Sonian Forest;Belgium;natural;50.7706;4.4467
943;Belfry of Gembloux;Belgium;cultural;50.560719;4.692933
943;Belfry of Menen;Belgium;cultural;50.783333333333;3.1166666666667
707;Potala Palace;People's Republic of China;cultural;29.657777777778;91.116944444444
439;Forbidden City;People's Republic of China;cultural;39.915833333333;116.39083333333
1279;Mount Wutai;People's Republic of China;cultural;39.081388888889;113.56694444444
881;Temple of Heaven;People's Republic of China;cultural;39.8822;116.4066
1135;Capital Cities and Tombs of the Ancient Koguryo Kingdom;People's Republic of China;cultural;41.15694444;126.18722222
779;Mount Emei;People's Republic of China;mixto;29.519722222222;103.3325
857;Grand-Place;Belgium;cultural;50.84670775;4.35253815
1298;Stoclet Palace;Belgium;cultural;50.83514;4.41625
855;Béguinages in Flanders;Belgium;cultural;51.030972222222;4.47375
855;Liers Begijnhof;Belgium;cultural;51.128056;4.568056
81;Notre-Dame de Chartres;France;cultural;48.447777777778;1.4877777777778
81;Notre-Dame de Chartres;France;cultural;48.447777777778;1.4877777777778
344;Pont du Gard;France;cultural;43.9473;4.5355
344;Pont du Gard;France;cultural;43.9473;4.5355
1625;Cordouan Lighthouse;France;cultural;45.5863198;-1.1733254
160;Palace of Fontainebleau;France;cultural;48.402222222222;2.7005555555556
1603;Crozet Islands;France;natural;-46.38;51.67
770;Canal du Midi;France;cultural;43.61111111;1.41833333
161;Château de Chambord;France;cultural;47.616111111111;1.5172222222222
1283;Arras citadel;France;cultural;50.2824;2.7591
601;Reims Cathedral;France;cultural;49.253888888889;4.0341666666667
635;Bourges Cathedral;France;cultural;47.08222;2.39917
635;Bourges Cathedral;France;cultural;47.08222;2.39917
868;Bourges Cathedral;France;cultural;47.08222;2.39917
559;Chinese Pavilion at Drottningholm;Sweden;cultural;59.31694444;17.87861111
712;Villa Godi;Italy;cultural;45.746141;11.534439
175;Villa Castello;Italy;cultural;43.819444;11.228167
712;Villa Thiene;Italy;cultural;45.5729814;11.6249847
1068;Sacro Monte di Varallo;Italy;cultural;45.81861111;8.25472222
712;Villa Gazzotti Grimani;Italy;cultural;45.55916667;11.60055556
712;Villa Zeno;Italy;cultural;45.70027778;12.64305556
712;Villa Serego;Italy;cultural;45.499444444444;10.925555555556
712;Villa Angarano;Italy;cultural;45.78055556;11.72361111
751;Verla;Finland;cultural;61.061992;26.640016
579;Sammallahdenmäki;Finland;cultural;61.11767375;21.7751687
999;;Brazil;natural;-17.4;-57.5
830;Amalfi Coast;Italy;cultural;40.633333333333;14.6
398;Castel del Monte;Italy;cultural;41.0847535;16.2709346
1026;Val d'Orcia;Italy;cultural;43.066666666667;11.55
91;Basilica of Saint Paul outside the Walls;Italy;cultural;41.858611111111;12.477222222222
93;Santa Maria delle Grazie;Italy;cultural;45.466008;9.170408
93;Santa Maria delle Grazie;Italy;cultural;45.465833333333;9.1711111111111
833;Su Nuraxi di Barumini;Italy;cultural;39.7028565;8.9998843
907;Hadrian's Villa;Italy;cultural;41.941944;12.775278
558;Skogskyrkogården;Sweden;cultural;59.275555555556;18.099444444444
558;Skogskyrkogården;Sweden;cultural;59.275555555556;18.099444444444
496;St Augustine's Abbey;United Kingdom;cultural;51.278127777778;1.0882055555556
487;Henderson Island;United Kingdom;natural;-24.375;-128.325
1084;Kew Gardens;United Kingdom;cultural;51.478888888889;-0.29361111111111
769;Uvs Lake;Russia;natural;50.3;92.7
1023;Wrangel Island;Russia;natural;71.233333333333;-179.4
719;Yugyd Va National Park;Russia;natural;64.4631;59.0123
768;Golden Mountains of Altai;Russia;natural;50.466666666667;86.0
768;Golden Mountains of Altai;Russia;natural;50.466666666667;86.0
540;Krasnoye Selo;Russia;cultural;59.736245;30.086205
425;Blenheim Palace;United Kingdom;cultural;51.841362665639;-1.3609483075589
998;Anavilhanas National Park;Brazil;natural;-2.39472222;-60.92055556
1004;Eastern Qing Tombs;People's Republic of China;cultural;40.193333333333;117.65111111111
1039;Yungang Grottoes;People's Republic of China;cultural;40.109722222222;113.12222222222
779;Leshan Giant Buddha;People's Republic of China;mixto;29.546944444444;103.76925
911;Wuyi Mountains;People's Republic of China;mixto;27.716667;117.683333
911;Wuyi Mountains;People's Republic of China;mixto;27.716667;117.683333
604;Yuriev Monastery;Russia;cultural;58.486388888889;31.284722222222
540;Sestroretsky Razliv;Russia;cultural;60.086944444444;30.010277777778
931;City of Graz – Historic Centre and Schloss Eggenberg;Austria;cultural;47.074166666667;15.391666666667
1614;Artists' Colony in Darmstadt;Germany;cultural;49.87543334529;8.6665039701752
783;Melanchthonhaus;Germany;cultural;51.86472;12.65083
1631;Castra Novaesium;Germany;cultural;51.1839;6.72194
367;Igel Column;Germany;cultural;49.7092;6.54944
931;Innere Stadt;Austria;cultural;47.0719;15.4408
785;Semmering railway;Austria;cultural;47.643;15.831
1363;Nussbaumersee;Switzerland;cultural;47.616111111111;8.8172222222222
975;Zollverein Coal Mine Industrial Complex;Germany;cultural;51.4865;7.04408
687;Völklingen Ironworks;Germany;cultural;49.25056;6.84528
897;Wartburg;Germany;cultural;50.966111111111;10.306388888889
896;Museum Island;Germany;cultural;52.521388888889;13.395555555556
367;Porta Nigra;Germany;cultural;49.759722222222;6.6438888888889
1133;Ancient and Primeval Beech Forests of the Carpathians and Other Regions of Europe;Germany;natural;49.0;15.0
1133;Ancient and Primeval Beech Forests of the Carpathians and Other Regions of Europe;Germany;natural;49.0;15.0
1133;Ancient and Primeval Beech Forests of the Carpathians and Other Regions of Europe;Germany;natural;49.0;15.0
1133;Ancient and Primeval Beech Forests of the Carpathians and Other Regions of Europe;Germany;natural;49.0;15.0
288;Augustusburg and Falkenlust Palaces;Germany;cultural;50.8275;6.9080555555556
1127;Muskau Park;Germany;cultural;51.547559;14.723229
169;Würzburg Residence;Germany;cultural;49.79279761747;9.9388890432453
974;Reichenau Island;Germany;cultural;47.693055555556;9.0630555555556
271;Wieskirche;Germany;cultural;47.6806;10.900445
534;Dessau-Wörlitz Garden Realm;Germany;cultural;51.8636;12.2814
515;Abbey and Altenmünster of Lorsch;Germany;cultural;49.65369;8.56858
515;Abbey and Altenmünster of Lorsch;Germany;cultural;49.653888888889;8.5688888888889
515;Abbey and Altenmünster of Lorsch;Germany;cultural;49.65369;8.56858
515;Abbey and Altenmünster of Lorsch;Germany;cultural;49.65369;8.56858
515;Abbey and Altenmünster of Lorsch;Germany;cultural;49.653888888889;8.5688888888889
515;Abbey and Altenmünster of Lorsch;Germany;cultural;49.653888888889;8.5688888888889
546;Maulbronn Monastery;Germany;cultural;49.0011;8.8129
187;St. Michael's Church;Germany;cultural;52.1529;9.9435
1187;Struve Geodetic Arc;Russia;cultural;52.289444444444;25.649444444444
632;Solovetsky Islands;Russia;cultural;65.024444;35.710556
404;Temple of Rome and Augustus;Greece;cultural;37.971625;23.727293
1187;Struve Geodetic Arc;Belarus;cultural;52.289444444444;25.649444444444
33;Białowieża Forest;Belarus;natural;52.75;23.95
1631;Laurium;Netherlands;cultural;52.08606;4.88395
759;Fort bij Nigtevecht;Netherlands;cultural;52.275;5.01722
759;Fort bij Abcoude;Netherlands;cultural;52.27;4.980556
759;Fort Werk 4;Netherlands;cultural;52.27111;5.17611
759;Westbatterij Muiden;Netherlands;cultural;52.336;5.0668611111111
1631;Traiectum;Netherlands;cultural;52.090692;5.121642
1631;Fectio;Netherlands;cultural;52.05611;5.16556
1631;Fectio;Netherlands;cultural;52.05671;5.16577
1441;Van Nelle Factory;Netherlands;cultural;51.922778;4.433611
941;Tiryns;Greece;cultural;37.599444444444;22.799722222222
941;Tiryns;Greece;cultural;37.596719;22.799814
1733;Zominthos;Greece;cultural;35.24869444;24.88713889
404;Erechtheion;Greece;cultural;37.972083333333;23.726527777778
1733;Phaistos;Greece;cultural;35.05123;24.814267
1733;Phaistos;Greece;cultural;35.051267;24.810922
725;Dobšinská Ice Cave;Slovakia;natural;48.868333333333;20.304444444444
1273;Church of the Holy Trinity;Slovakia;cultural;49.133333;20.428333
1273;Church of Saint-Francis of Assisi;Slovakia;cultural;49.246669444444;21.203611111111
622;Vlkolínec;Slovakia;cultural;49.0397;19.2784
1187;Struve Geodetic Arc;Estonia;cultural;52.289444444444;25.649444444444
1187;Struve Geodetic Arc;Latvia;cultural;52.289444444444;25.649444444444
1572;Göbekli Tepe;Turkey;cultural;37.223055555556;38.9225
1731;Sardis;Turkey;cultural;38.488314;28.040286
1731;Sardis;Turkey;cultural;38.488333;28.040278
1018;Çukuriçi Höyük;Turkey;cultural;37.9292;27.3594
860;Kroměříž Castle;Czech Republic;cultural;49.300277777778;17.393055555556
588;Danube Delta;Ukraine;natural;45.2;29.5
1187;Struve Geodetic Arc;Ukraine;cultural;52.289444444444;25.649444444444
1273;Church of Saint Nicolas;Slovakia;cultural;49.3524967;21.7077506
1643;Žale Central Cemetery;Slovenia;cultural;46.070781083;14.531855141
620;Spiš Castle;Slovakia;cultural;49.000555555556;20.768333333333
598;Voroneț Monastery;Romania;cultural;47.5170438;25.8641623
598;churches of Moldavia;Romania;cultural;47.733;25.933
263;Belém Tower;Portugal;cultural;38.691388888889;-9.2158333333333
263;Jerónimos Monastery;Portugal;cultural;38.697846;-9.205601
44;Thracian Tomb of Kazanlak;Bulgaria;cultural;42.625555555556;25.399166666667
43;Madara Rider;Bulgaria;cultural;43.2773746;27.1188945
588;Danube Delta;Romania;natural;45.2;29.5
88;Agilkia island;Egypt;cultural;24.0252109;32.8842688
791;Uxmal;Mexico;cultural;20.359444444444;-89.771388888889
1061;Calakmul;Mexico;mixto;18.105;-89.810555555556
1061;Calakmul;Mexico;mixto;18.105;-89.810555555556
1187;Struve Geodetic Arc;Moldova;cultural;52.289444444444;25.649444444444
1209;Agave Landscape and Ancient Industrial Facilities of Tequila;Mexico;cultural;20.628286;-103.769989
1351;Historic downtown of Mexico City;Mexico;cultural;19.432777777778;-99.133055555556
412;Historic downtown of Mexico City;Mexico;cultural;19.432777777778;-99.133055555556
1351;Aculco Municipality;Mexico;cultural;20.116666666667;-99.833333333333
216;Monastery of Saint John of Rila;Bulgaria;cultural;42.133333333333;23.340277777778
570;Butrint;Albania;cultural;39.757066;20.016628
97;Diocletian's Palace;Croatia;cultural;43.508055555556;16.438333333333
963;Šibenik Cathedral;Croatia;cultural;43.735555555556;15.889166666667
34;Fort Vredenburgh;Ghana;cultural;5.05214;-1.48391
1152;Thingvellir National Park;Iceland;cultural;64.258055555556;-21.125
1133;Ancient and Primeval Beech Forests of the Carpathians and Other Regions of Europe;Ukraine;natural;49.0;15.0
1133;Ancient and Primeval Beech Forests of the Carpathians and Other Regions of Europe;Ukraine;natural;49.0;15.0
1133;Ancient and Primeval Beech Forests of the Carpathians and Other Regions of Europe;Ukraine;natural;49.0;15.0
1133;Ancient and Primeval Beech Forests of the Carpathians and Other Regions of Europe;Ukraine;natural;49.0;15.0
1330;Residence of Bukovinian and Dalmatian Metropolitans;Ukraine;cultural;48.296641666667;25.924905555556
600;banks of the Seine;France;cultural;48.85;2.35889
943;Belfry of Rue;France;cultural;50.27258;1.66875
1256;port of the Moon;France;cultural;44.838888888889;-0.57222222222222
943;Belfry of Abbeville;France;cultural;50.107228;1.832961
943;Belfry of Boulogne-sur-Mer;France;cultural;50.725019;1.613189
868;Oloron Cathedral;France;cultural;43.187778;-0.616111
868;Basilique Saint-Eutrope de Saintes;France;cultural;45.743333333333;-0.64138888888889
868;Église Saint-Hilaire de Melle;France;cultural;46.22;-0.14972222222222
943;Belfry of Gravelines;France;cultural;50.986761;2.126092
1007;Cederberg;South Africa;natural;-32.3333;19.0833
916;Robben Island;South Africa;cultural;-33.805;18.37
1055;Lamu;Kenya;cultural;-2.2686111111111;40.900277777778
98;Plitvice Lakes National Park;Croatia;natural;44.880445;15.616035
84;Vézelay Abbey;France;cultural;47.466388888889;3.7483333333333
868;Church of Saint-Pierre d'Aulnay;France;cultural;46.02287;-0.35516
848;Khirokitia;Cyprus;cultural;34.796725;33.343719444444
1008;Guantánamo;Cuba;cultural;20.138333;-75.206111
1076;Gobustan State Historical and Cultural Reserve;Azerbaijan;cultural;40.10555556;49.38888889
958;Palace of the Shirvanshahs;Azerbaijan;cultural;40.366111111111;49.833333333333
1160;Madriu-Perafita-Claror Valley;Andorra;cultural;42.492147;1.594426
914;iSimangaliso Wetland Park;South Africa;natural;-27.8389;32.55
914;iSimangaliso Wetland Park;South Africa;natural;-28.0;32.5
17;Omo River;Ethiopia;cultural;4.4969;36.0138
17;Omo River;Ethiopia;cultural;8.2563;37.4899
943;Belfry of Douai;France;cultural;50.367961;3.080644
868;Hôpital des pèlerins de Pons;France;cultural;45.569694444444;-0.55166944444444
943;Belfry of Bergues;France;cultural;50.9667;2.43333
943;Belfry of Hesdin;France;cultural;50.372981;2.036339
943;Belfry of Loos;France;cultural;50.61507;3.01478
868;Church Saint-Hilaire le Grand;France;cultural;46.577222222222;0.33277777777778
943;Belfry of Dunkirk;France;cultural;51.035612;2.37619
179;Tassili n'Ajjer;Algeria;mixto;25.666666666667;9.0
1133;Ancient and Primeval Beech Forests of the Carpathians and Other Regions of Europe;Czech Republic;natural;49.0;15.0
1133;Ancient and Primeval Beech Forests of the Carpathians and Other Regions of Europe;Czech Republic;natural;49.0;15.0
1133;Ancient and Primeval Beech Forests of the Carpathians and Other Regions of Europe;Czech Republic;natural;49.0;15.0
1133;Ancient and Primeval Beech Forests of the Carpathians and Other Regions of Europe;Czech Republic;natural;49.0;15.0
132;Ħaġar Qim;Malta;cultural;35.827777777778;14.442222222222
1162;Vredefort crater;South Africa;natural;-26.816666666667;27.416666666667
1162;Vredefort crater;South Africa;natural;-27.0;27.5
372;Studley Royal Park;United Kingdom;cultural;54.116111111111;-1.5730555555556
437;Mount Tai;People's Republic of China;mixto;36.266666666667;117.1
1305;Shaolin Monastery;People's Republic of China;cultural;34.50709;112.93569
1442;Bingling Temple;People's Republic of China;cultural;35.80551;103.044378
1003;Longmen Grottoes;People's Republic of China;cultural;34.555555555556;112.46972222222
147;Kakadu National Park;Australia;mixto;-13.005471;132.519512
1273;Church of the Transfer of the Relics of St. Nicholas (Ruská Bystrá);Slovakia;cultural;48.856819444444;22.296761111111
1273;Temple of St. Michael Archangel;Slovakia;cultural;49.328333333333;21.626388888889
1133;Ancient and Primeval Beech Forests of the Carpathians and Other Regions of Europe;Slovakia;natural;49.0;15.0
1133;Ancient and Primeval Beech Forests of the Carpathians and Other Regions of Europe;Slovakia;natural;49.0;15.0
1133;Ancient and Primeval Beech Forests of the Carpathians and Other Regions of Europe;Slovakia;natural;49.0;15.0
1133;Ancient and Primeval Beech Forests of the Carpathians and Other Regions of Europe;Slovakia;natural;49.0;15.0
1000;Rocas Atoll;Brazil;natural;-3.8663888888889;-33.801944444444
606;Serra da Capivara National Park;Brazil;cultural;-8.6667;-42.55
1035;Cerrado;Brazil;natural;-14.005693888889;-47.684611111111
1504;Mramorje;Serbia;cultural;43.95043615;19.42748429
1306;Australian Convict Sites;Australia;cultural;-33.37833333;150.9944444
255;Fatehpur Sikri;India;cultural;27.091111111111;77.661111111111
524;Sanchi;India;cultural;23.47944444;77.73972222
242;Ajanta Caves;India;cultural;20.55341667;75.70047222
243;Ellora Caves;India;cultural;20.026388888889;75.179166666667
232;Humayun's Tomb;India;cultural;28.593264;77.250602
232;Humayun's Tomb;India;cultural;28.593264;77.250602
337;Kaziranga National Park;India;natural;26.666666666667;93.35
1133;Ancient and Primeval Beech Forests of the Carpathians and Other Regions of Europe;Romania;natural;49.0;15.0
1133;Ancient and Primeval Beech Forests of the Carpathians and Other Regions of Europe;Romania;natural;49.0;15.0
1133;Ancient and Primeval Beech Forests of the Carpathians and Other Regions of Europe;Romania;natural;49.0;15.0
1133;Ancient and Primeval Beech Forests of the Carpathians and Other Regions of Europe;Romania;natural;49.0;15.0
219;Srebarna Nature Reserve;Bulgaria;natural;44.111116;27.072206
219;Srebarna Nature Reserve;Bulgaria;natural;44.111116;27.072206
1133;Ancient and Primeval Beech Forests of the Carpathians and Other Regions of Europe;Bulgaria;natural;49.0;15.0
1133;Ancient and Primeval Beech Forests of the Carpathians and Other Regions of Europe;Bulgaria;natural;49.0;15.0
1133;Ancient and Primeval Beech Forests of the Carpathians and Other Regions of Europe;Bulgaria;natural;49.0;15.0
1133;Ancient and Primeval Beech Forests of the Carpathians and Other Regions of Europe;Bulgaria;natural;49.0;15.0
402;Manu National Park;Peru;natural;-12.14;-71.66
1133;Ancient and Primeval Beech Forests of the Carpathians and Other Regions of Europe;Slovenia;natural;49.0;15.0
1133;Ancient and Primeval Beech Forests of the Carpathians and Other Regions of Europe;Slovenia;natural;49.0;15.0
1133;Ancient and Primeval Beech Forests of the Carpathians and Other Regions of Europe;Slovenia;natural;49.0;15.0
1133;Ancient and Primeval Beech Forests of the Carpathians and Other Regions of Europe;Slovenia;natural;49.0;15.0
925;Bhimbetka rock shelters;India;cultural;22.93863333;77.61438056
1017;Central Suriname Nature Reserve;Suriname;natural;4.0;-56.5
421;Tongariro National Park;New Zealand;mixto;-39.2;175.583333
421;Tongariro National Park;New Zealand;mixto;-39.2;175.583333
877;Auckland Islands;New Zealand;natural;-50.7;166.1
634;Church of the Ascension, Kolomenskoye;Russia;cultural;55.667222222222;37.670833333333
1097;Novodevichy Convent;Russia;cultural;55.725972222222;37.556583333333
1234;Putorana Plateau;Russia;natural;69.0;93.0
1299;Lena Pillars;Russia;natural;61.106944444444;127.36166666667
1299;Lena Pillars;Russia;natural;61.106944444444;127.36166666667
1133;Ancient and Primeval Beech Forests of the Carpathians and Other Regions of Europe;North Macedonia;natural;49.0;15.0
1133;Ancient and Primeval Beech Forests of the Carpathians and Other Regions of Europe;North Macedonia;natural;49.0;15.0
1133;Ancient and Primeval Beech Forests of the Carpathians and Other Regions of Europe;North Macedonia;natural;49.0;15.0
1133;Ancient and Primeval Beech Forests of the Carpathians and Other Regions of Europe;North Macedonia;natural;49.0;15.0
1133;Ancient and Primeval Beech Forests of the Carpathians and Other Regions of Europe;Albania;natural;49.0;15.0
1133;Ancient and Primeval Beech Forests of the Carpathians and Other Regions of Europe;Albania;natural;49.0;15.0
1133;Ancient and Primeval Beech Forests of the Carpathians and Other Regions of Europe;Albania;natural;49.0;15.0
1133;Ancient and Primeval Beech Forests of the Carpathians and Other Regions of Europe;Albania;natural;49.0;15.0
1455;Susa;Iran;cultural;32.189444444444;48.256111111111
1455;Susa;Iran;cultural;32.18922;48.257785
711;Los Katíos National Park;Colombia;natural;7.8;-77.15
743;Tierradentro;Colombia;cultural;2.583;-76.033
1563;Al-Ahsa Oasis;Saudi Arabia;cultural;25.429444;49.621944
910;Brimstone Hill Fortress National Park;Saint Kitts and Nevis;cultural;17.347;-62.836
910;Brimstone Hill Fortress National Park;Saint Kitts and Nevis;cultural;17.34744;-62.83575
1133;Ancient and Primeval Beech Forests of the Carpathians and Other Regions of Europe;Croatia;natural;49.0;15.0
1133;Ancient and Primeval Beech Forests of the Carpathians and Other Regions of Europe;Croatia;natural;49.0;15.0
1133;Ancient and Primeval Beech Forests of the Carpathians and Other Regions of Europe;Croatia;natural;49.0;15.0
1133;Ancient and Primeval Beech Forests of the Carpathians and Other Regions of Europe;Croatia;natural;49.0;15.0
149;Quiriguá;Guatemala;cultural;15.269444444444;-89.040277777778
1263;Abd al Kuri;Yemen;natural;12.183333333333;52.233333333333
604;Zverin Monastery;Russia;cultural;58.535961111111;31.276130555556
765;Nalychevo Nature Park;Russia;natural;53.5;158.83333333333
540;Znamenka Palace;Russia;cultural;59.87688333;29.96450556
719;Pechora-Ilych Nature Reserve;Russia;natural;61.48;56.79
1133;Ancient and Primeval Beech Forests of the Carpathians and Other Regions of Europe;Bosnia and Herzegovina;natural;49.0;15.0
1133;Ancient and Primeval Beech Forests of the Carpathians and Other Regions of Europe;Bosnia and Herzegovina;natural;49.0;15.0
1133;Ancient and Primeval Beech Forests of the Carpathians and Other Regions of Europe;Bosnia and Herzegovina;natural;49.0;15.0
1133;Ancient and Primeval Beech Forests of the Carpathians and Other Regions of Europe;Bosnia and Herzegovina;natural;49.0;15.0
764;Great Blue Hole;Belize;natural;17.31556;-87.53444
648;Jesús de Tavarangüé;Paraguay;cultural;-27.056;-55.753
121;Pashupatinath Temple;Nepal;cultural;27.710495;85.348645
1040;Masada;Israel;cultural;31.315555555556;35.353888888889
1130;Assur;Iraq;cultural;35.456666666667;43.2625
1437;Citadel of Erbil;Iraq;cultural;36.191;44.009
1108;Tel Megiddo;Israel;cultural;32.585277777778;35.184444444444
1239;Weiße Stadt;Germany;cultural;52.56916667;13.35277778
1363;Rose Island;Germany;cultural;47.941554206581;11.308772468044
1379;Margravial Opera House;Germany;cultural;49.944344697677;11.578663620864
367;Roman Monuments, Cathedral of St. Peter and Church of Our Lady in Trier UNESCO World Heritage Site;Germany;cultural;49.75;6.63306
367;Roman Bridge;Germany;cultural;49.751887;6.626561
367;Roman Bridge;Germany;cultural;49.751667;6.626111
1348;Bara;Syria;cultural;35.68333333;36.53333333
192;Shibam;Yemen;cultural;15.926944444444;48.626666666667
389;Studenica monastery;Serbia;cultural;43.486722222222;20.531638888889
1110;A-Ma Temple;People's Republic of China;cultural;22.186111;113.531139
1110;Sam Kai Vui Kun;People's Republic of China;cultural;22.194;113.53941
590;Khao Yai National Park;Thailand;natural;14.35;101.44
405;Sinharaja Forest Reserve;Sri Lanka;natural;6.24;80.28
479;Luang Prabang;Laos;cultural;19.89;102.13472222222
479;Luang Prabang;Laos;cultural;19.89;102.13472222222
949;Mỹ Sơn;Vietnam;cultural;15.76324;108.124446
577;Heard Island and McDonald Islands;Australia;natural;-53.093527777778;73.517
630;K'gari;Australia;natural;-25.24;153.15
181;Tasmanian Wilderness;Australia;mixto;-42.5957;146.1729
181;Tasmanian Wilderness;Australia;mixto;-42.5957;146.1729
181;Tasmanian Wilderness;Australia;mixto;-42.5957;146.1729
181;Tasmanian Wilderness;Australia;mixto;-42.5957;146.1729
181;Tasmanian Wilderness;Australia;mixto;-42.5957;146.1729
294;Baalbek;Lebanon;cultural;34.015363;36.200556
294;Baalbek;Lebanon;cultural;34.006111111111;36.208611111111
450;Kandy;Sri Lanka;cultural;7.2930555555556;80.635
1605;Jaipur;India;cultural;26.915;75.82
322;;Bangladesh;cultural;25.03111111;88.97694444
886;Merv;Turkmenistan;cultural;37.662777777778;62.1925
999;;Paraguay;natural;-17.4;-57.5
1358;Citadel of the Hồ Dynasty;Vietnam;cultural;20.078055555556;105.60472222222
672;Ha Long Bay;Vietnam;natural;20.9;107.2
672;Ha Long Bay;Vietnam;natural;20.9;107.2
1328;Imperial Citadel of Thang Long;Vietnam;cultural;21.0325;105.83972
1339;Bikini Atoll;Marshall Islands;cultural;11.6;165.4
1208;Bam;Iran;cultural;29.106111111111;58.356944444444
1208;Bam;Iran;cultural;29.106111111111;58.356944444444
1568;Sarvestan Palace;Iran;cultural;29.195556;53.230833
1077;Takht-e Soleyman;Iran;cultural;36.604722222222;47.234166666667
1372;Eram Garden;Iran;cultural;29.635833333333;52.525555555556
114;Persepolis;Iran;cultural;29.934444;52.891389
114;Persepolis;Iran;cultural;29.935;52.89
1078;Jewish Quarter of Třebíč;Czech Republic;cultural;49.216778;15.873361
527;Kyiv Pechersk Lavra;Ukraine;cultural;50.432222222222;30.562222222222
527;Kyiv Pechersk Lavra;Ukraine;cultural;50.434148;30.558323
1363;Pestenacker;Germany;cultural;48.1455;10.9485
1631;Römische Kalkbrennerei Iversheim;Germany;cultural;50.5881;6.77399
1363;Schreckensee;Germany;cultural;47.88916667;9.56444444
783;Luther Memorials in Eisleben and Wittenberg;Germany;cultural;51.864722222222;12.652777777778
1133;Serrahn Hills;Germany;natural;53.3401;13.1975
136;Garamba National Park;Democratic Republic of the Congo;natural;4.19559;29.48093
136;Garamba National Park;Democratic Republic of the Congo;natural;4.0;29.25
280;Salonga National Park;Democratic Republic of the Congo;natural;-2.0;21.0
280;Salonga National Park;Democratic Republic of the Congo;natural;-1.76516;21.49723
999;;Bolivia;natural;-17.4;-57.5
287;Tadrart Acacus;Libya;cultural;24.833429166667;10.333319444444
444;Aït Benhaddou;Morocco;cultural;31.05;-7.1333333333333
836;Volubilis;Morocco;cultural;34.0725;-5.5548
836;Volubilis;Morocco;cultural;34.071111111111;-5.5536111111111
836;Volubilis;Morocco;cultural;34.071111111111;-5.5536111111111
836;Volubilis;Morocco;cultural;34.0725;-5.5548
195;Taï National Park;Ivory Coast;natural;5.75;-7.12
985;Sehlabathebe National Park;Lesotho;mixto;-29.9;29.11666667
95;Lokrum;Croatia;cultural;42.627222222222;18.119444444444
132;Ġgantija;Malta;cultural;36.047265;14.269095
1549;Shaki;Azerbaijan;cultural;41.191944444444;47.170555555556
42;Boyana Church;Bulgaria;cultural;42.644672222222;23.266172222222
211;Minaret of Jam;Afghanistan;cultural;34.396386;64.515888
1042;Acre;Israel;cultural;32.926111111111;35.083888888889
599;Island of Mozambique;Mozambique;cultural;-15.036666666667;40.732777777778
1022;Kasubi Tombs;Uganda;cultural;0.32916666666667;32.553333333333
447;Uluṟu-Kata Tjuṯa National Park;Australia;mixto;-25.322076;130.985732
1577;Budj Bim;Australia;cultural;-38.0667;141.917
901;Litomyšl Chateau;Czech Republic;cultural;49.873437833333;16.312648833333
732;Church of the Assumption of Our Lady and Saint John the Baptist;Czech Republic;cultural;49.95984;15.28988
616;Průhonice Castle park;Czech Republic;cultural;49.9994;14.5569
1336;Musawarat;Sudan;cultural;16.41583333;33.32361111
364;Great Zimbabwe;Zimbabwe;cultural;-20.27;30.933
183;Leptis Magna;Libya;cultural;32.638331884068;14.290496459099
183;Leptis Magna;Libya;cultural;32.636748;14.2922
362;Ghadames;Libya;cultural;30.133333333333;9.5
836;Volubilis;Roman Empire;cultural;34.0725;-5.5548
836;Volubilis;Roman Empire;cultural;34.071111111111;-5.5536111111111
836;Volubilis;Roman Empire;cultural;34.071111111111;-5.5536111111111
836;Volubilis;Roman Empire;cultural;34.0725;-5.5548
499;Kairouan;Tunisia;cultural;35.683333333333;10.1
499;Kairouan;Tunisia;cultural;35.683333333333;10.1
1640;Djerba;Tunisia;cultural;33.7837;10.8833
937;Valdes Peninsula;Argentina;natural;-42.5;-63.933333
145;Los Glaciares National Park;Argentina;natural;-50.330530387333;-73.234164314729
936;Cueva de las Manos;Argentina;cultural;-47.15;-70.666666666667
648;Jesús de Tavarangüé;Portuguese Empire;cultural;-27.056;-55.753
1010;Land of Frankincense;Oman;cultural;18.253333333333;53.647591666667
902;Church on the Hill;Romania;cultural;46.21764;24.7906
1263;Socotra;Yemen;natural;12.51;53.92
1700;Sirwah;Yemen;cultural;15.451778;45.018117
611;Zabid;Yemen;cultural;14.202174387164;43.318330547497
611;Zabid;Yemen;cultural;14.2;43.316666666667
1142;Nakahechi;Japan;cultural;33.7758;135.5036
1632;Futatsumori Site;Japan;cultural;40.748055555556;141.23
1593;Magodayūyama Kofun;Japan;cultural;34.56;135.485
1433;Church of the Nativity;Palestine;cultural;31.704305555556;35.207583333333
99;Natural and Cultural Heritage of the Ohrid region;North Macedonia;mixto;41.1181;20.8133
99;Natural and Cultural Heritage of the Ohrid region;North Macedonia;mixto;40.900702777778;20.664016666667
99;Natural and Cultural Heritage of the Ohrid region;North Macedonia;mixto;40.900702777778;20.664016666667
99;Natural and Cultural Heritage of the Ohrid region;North Macedonia;mixto;41.1181;20.8133
99;Natural and Cultural Heritage of the Ohrid region;North Macedonia;mixto;41.1181;20.8133
99;Natural and Cultural Heritage of the Ohrid region;North Macedonia;mixto;41.1181;20.8133
99;Natural and Cultural Heritage of the Ohrid region;North Macedonia;mixto;40.900702777778;20.664016666667
99;Natural and Cultural Heritage of the Ohrid region;North Macedonia;mixto;40.900702777778;20.664016666667
1631;Castra Novaesium;Ancient Rome;cultural;51.1839;6.72194
99;Natural and Cultural Heritage of the Ohrid region;Albania;mixto;41.1181;20.8133
99;Natural and Cultural Heritage of the Ohrid region;Albania;mixto;40.900702777778;20.664016666667
99;Natural and Cultural Heritage of the Ohrid region;Albania;mixto;40.900702777778;20.664016666667
99;Natural and Cultural Heritage of the Ohrid region;Albania;mixto;41.1181;20.8133
99;Natural and Cultural Heritage of the Ohrid region;Albania;mixto;41.1181;20.8133
99;Natural and Cultural Heritage of the Ohrid region;Albania;mixto;41.1181;20.8133
99;Natural and Cultural Heritage of the Ohrid region;Albania;mixto;40.900702777778;20.664016666667
99;Natural and Cultural Heritage of the Ohrid region;Albania;mixto;40.900702777778;20.664016666667
140;Takht-i-Bahi;Pakistan;cultural;34.320833333333;71.945833333333
586;Rohtas Fort;Pakistan;cultural;32.965277777778;73.576416666667
171;Fort and Shalamar Gardens in Lahore;Pakistan;cultural;31.59027778;74.30972222
139;Taxila;Pakistan;cultural;33.745833333333;72.7875
139;Taxila;Pakistan;cultural;33.745685;72.815207
1610;Padang Panjang railway station;Indonesia;cultural;-0.463368;100.395
1404;Grand-Pré;Canada;cultural;45.108889;-64.309167
1221;Fort Henry;Canada;cultural;44.230263888889;-76.459680555556
915;Makapansgat;South Africa;cultural;-24.158611111111;29.176944444444
1269;;Peru;cultural;-10.893611111111;-77.520277777778
366;Chan Chan;Peru;cultural;-8.1105555555556;-79.075
1091;Goguryeo tombs;North Korea;cultural;38.863055555556;125.415
870;Historic Monuments of Ancient Nara;Japan;cultural;34.67556;135.83944
913;Shrines and Temples of Nikkō;Japan;cultural;36.7475;139.6105556
913;Shrines and Temples of Nikkō;Japan;cultural;36.7565;139.5994
1484;Hagi Castle;Japan;cultural;34.417592;131.382478
870;Kōfuku-ji Temple;Japan;cultural;34.683207;135.831302
1362;Chichijima;Japan;natural;27.066666666667;142.20833333333
660;Chūgū-ji Temple;Japan;cultural;34.61496667;135.739575
688;Nishi Hongan-ji Temple;Japan;cultural;34.992047;135.751611
1362;North Iwo Jima;Japan;natural;25.434722222222;141.28083333333
1362;North Iwo Jima;Japan;natural;25.433055555556;141.28166666667
688;Daigo-ji Temple;Japan;cultural;34.95111111;135.81944444
972;Tamaudun;Japan;cultural;26.21833333;127.71472222
1362;Nishinoshima;Japan;natural;27.24694444;140.87444444
688;Ninna-ji Temple;Japan;cultural;35.03111111;135.71388889
870;Gangō-ji Temple;Japan;cultural;34.678055555556;135.83111111111
1142;Kongōbu-ji Temple;Japan;cultural;34.214081;135.584092
1418;Lake Yamanaka;Japan;cultural;35.416666666667;138.875
1264;Seongsan Ilchulbong;South Korea;natural;33.45805556;126.9425
669;Church of Nuestra Señora del Mercado, León;Spain;cultural;42.595038888889;-5.5688805555556
669;Castillo de Belorado;Spain;cultural;42.420791666667;-3.1872944444444
669;Museo del Carlismo de Estella;Spain;cultural;42.6698576;-2.0277977
874;Abrigo de Eudoviges;Spain;cultural;41.05219;-0.67725
874;Cova dels Cavalls;Spain;cultural;40.3972;0.06731
664;Arch of Trajan;Spain;cultural;38.91759;-6.346434
669;;Spain;cultural;42.62070278;-1.20371389
669;Fountain of the Horses;Spain;cultural;42.878588888889;-8.5442916666667
1313;Bullring of Almadén;Spain;cultural;38.775102777778;-4.8296444444444
669;Routes of Santiago de Compostela: Camino Francés and Routes of Northern Spain;Spain;cultural;43.335;-6.414722
669;Routes of Santiago de Compostela: Camino Francés and Routes of Northern Spain;Spain;cultural;43.335;-6.414722
866;Prehistoric Rock-Art Site of the Côa Valley and Siega Verde;Spain;cultural;40.6975;-6.66111
669;;Spain;cultural;42.464557;-2.443874
669;Castillo de Tiebas;Spain;cultural;42.696818;-1.637897
874;Abrigo del Arquero de los Callejones Cerrados;Spain;cultural;40.38664;-1.39475
874;Abrigo de la Cocinilla del Obispo;Spain;cultural;40.38792;-1.40086
669;Church of San Juan;Spain;cultural;42.289827777778;-4.1434083333333
664;Roman baths at calle Reyes Huertas;Spain;cultural;38.921056;-6.334731
669;Fernández Cadórniga Street Palace;Spain;cultural;42.595777777778;-5.5691666666667
874;;Spain;cultural;39.91844;-1.64936
874;;Spain;cultural;40.3871;0.0854
874;;Spain;cultural;38.14564;-2.32031
874;;Spain;cultural;40.6402;-0.0557
874;;Spain;cultural;40.6402;-0.0557
874;;Spain;cultural;40.6356;-0.0567
874;Galeria del Roure;Spain;cultural;40.6356;-0.0567
874;;Spain;cultural;40.6356;-0.0567
874;Coves del Civil;Spain;cultural;40.3999;0.0518
874;La Saltadora, shelter I;Spain;cultural;40.3908;0.0886
874;;Spain;cultural;38.7015;-1.27731
874;;Spain;cultural;38.7015;-1.27731
669;Puerta de San Esteban;Spain;cultural;42.3435575;-3.7044913
669;;Spain;cultural;42.401861111111;-3.3000555555556
669;;Spain;cultural;42.401832;-3.300131
669;Palacio Arzobispal de Santiago de Compostela;Spain;cultural;42.881111111111;-8.5453055555556
669;Church of Saint Mary near the Castle;Spain;cultural;42.267834;-4.40235
669;Monastery of San Juan Bautista;Spain;cultural;42.342631;-3.695093
669;Puentecillo de San Juan;Spain;cultural;42.342828395176;-3.6965963244438
603;Afrasiyab;Uzbekistan;cultural;39.671325;66.987708333333
1502;Nalanda Mahavihara;India;cultural;25.136797222222;85.443827777778
340;Kevladev National Park;India;natural;27.166667;77.516667
945;Chhatrapati Shivaji Maharaj Terminus;India;cultural;18.9398;72.8355
1430;Namib;Namibia;natural;-23.0;15.0
707;Potala Palace;Tibet;cultural;29.657777777778;91.116944444444
777;Sanahin Bridge;Armenia;cultural;41.099;44.657555555556
1011;Shoghakat Church;Armenia;cultural;40.168104;44.304876
529;San Javier;Bolivia;cultural;-16.2748;-62.5072
65;Antigua Guatemala;Guatemala;cultural;14.5575;-90.733333333333
368;Willi Willi National Park;Australia;natural;-31.073333333333;152.3983333
368;Willi Willi National Park;Australia;natural;-31.073333333333;152.3983333
368;Willi Willi National Park;Australia;natural;-31.178611111111;152.49083333333
368;Washpool National Park;Australia;natural;-29.365;152.3344444
129;Copán;Honduras;cultural;14.837963888889;-89.142441666667
275;Nuestra Señora de Santa Ana;Argentina;cultural;-27.3906017;-55.5807445
291;Nuestra Señora de Santa Ana;Argentina;cultural;-27.3906017;-55.5807445
202;Sigiriya;Sri Lanka;cultural;7.9569444444444;80.759722222222
1106;Pasargadae;Iran;cultural;30.2;53.179444444444
874;;Spain;cultural;38.69667;-1.27756
874;Abrigos del Arroyo de Tiscar;Spain;cultural;37.7791;-3.0227
874;Abrigo de Manolo Vallejo;Spain;cultural;37.7763;-3.0204
874;Abrigo de la Tejera;Spain;cultural;37.7106;-2.0844
874;;Spain;cultural;37.6832308;-2.1039761
874;Abrigo de la Yedra;Spain;cultural;37.6784;-2.0844
874;Abrigo de los Hoyos II;Spain;cultural;37.6668;-2.1184
874;Abrigo de los Hoyos I;Spain;cultural;37.6667;-2.1185
874;Abrigo del Melgar;Spain;cultural;37.8232;-3.0614
874;;Spain;cultural;38.23794;-1.61253
874;;Spain;cultural;38.23794;-1.61253
874;;Spain;cultural;38.09142;-1.80631
874;;Spain;cultural;38.09139;-1.80744
874;;Spain;cultural;38.09133;-1.80642
874;;Spain;cultural;38.23858;-1.56247
874;;Spain;cultural;38.23878;-1.5765
874;;Spain;cultural;38.23878;-1.5765
874;;Spain;cultural;38.23183;-1.57244
874;;Spain;cultural;38.23333;-1.57044
874;;Spain;cultural;38.22678;-1.57567
874;;Spain;cultural;38.23983;-1.56456
874;;Spain;cultural;37.9051;-1.4305
874;;Spain;cultural;38.26289;-1.379
874;;Spain;cultural;38.26289;-1.379
874;;Spain;cultural;38.26289;-1.379
874;;Spain;cultural;38.24367;-1.57131
874;;Spain;cultural;38.54589;-1.31533
874;;Spain;cultural;38.54589;-1.31533
874;;Spain;cultural;38.44214;-1.35856
874;;Spain;cultural;38.53142;-1.331
874;;Spain;cultural;37.75261;-1.97836
874;;Spain;cultural;37.80133;-1.97853
874;;Spain;cultural;37.80175;-1.97767
874;;Spain;cultural;37.70925;-1.98494
874;;Spain;cultural;37.75642;-1.97036
874;;Spain;cultural;37.75647;-1.96944
874;;Spain;cultural;37.7695;-1.96108
874;;Spain;cultural;38.04933;-2.27044
874;;Spain;cultural;38.17992;-2.1745
874;;Spain;cultural;38.17992;-2.1745
874;;Spain;cultural;38.24025;-2.09325
874;;Spain;cultural;38.21581;-2.18483
874;;Spain;cultural;38.17631;-2.03033
874;;Spain;cultural;38.17631;-2.03033
874;;Spain;cultural;38.17631;-2.03033
874;;Spain;cultural;38.17631;-2.03033
874;;Spain;cultural;38.26675;-1.98375
874;;Spain;cultural;38.26675;-1.98375
874;;Spain;cultural;38.26675;-1.98375
874;;Spain;cultural;38.26675;-1.98492
874;;Spain;cultural;38.26675;-1.98492
874;;Spain;cultural;38.18625;-2.18469
874;;Spain;cultural;38.18625;-2.18469
874;;Spain;cultural;38.18625;-2.18469
874;;Spain;cultural;38.25403;-2.02508
874;;Spain;cultural;38.23989;-2.06653
874;;Spain;cultural;38.24692;-2.09375
874;;Spain;cultural;38.15506;-2.10058
874;;Spain;cultural;38.24692;-2.09375
874;;Spain;cultural;38.18683;-2.19097
874;;Spain;cultural;38.18683;-2.19097
874;;Spain;cultural;38.155;-2.21931
874;;Spain;cultural;38.155;-2.21931
874;;Spain;cultural;38.24083;-2.01042
874;;Spain;cultural;38.22311;-2.02006
874;;Spain;cultural;38.22311;-2.02006
874;;Spain;cultural;38.22311;-2.02006
874;;Spain;cultural;38.15514;-2.00128
874;;Spain;cultural;38.19636;-2.04869
874;;Spain;cultural;38.19636;-2.04869
874;;Spain;cultural;38.04028;-1.60714
874;Rock art in Barranco del Cabezo del Moro;Spain;cultural;38.90786;-1.00547
874;;Spain;cultural;39.00425;-1.24297
874;;Spain;cultural;39.00675;-1.24381
874;;Spain;cultural;38.46508;-1.61408
874;;Spain;cultural;38.46647;-1.618
874;;Spain;cultural;38.48092;-1.63189
874;;Spain;cultural;38.46536;-1.61661
874;;Spain;cultural;38.25786;-2.11717
874;;Spain;cultural;38.25481;-2.10272
874;;Spain;cultural;38.25981;-2.11522
874;;Spain;cultural;38.26008;-2.11747
874;;Spain;cultural;38.24808;-2.11467
874;;Spain;cultural;38.25619;-2.11878
874;;Spain;cultural;38.17411;-2.40861
874;;Spain;cultural;38.14869;-2.30553
874;;Spain;cultural;38.19036;-2.35497
874;;Spain;cultural;38.15342;-2.34164
874;;Spain;cultural;38.13506;-2.32581
874;;Spain;cultural;38.19064;-2.30719
874;;Spain;cultural;38.13814;-2.39386
874;;Spain;cultural;38.14314;-2.33053
874;;Spain;cultural;38.13533;-2.39497
874;;Spain;cultural;38.14008;-2.37358
874;;Spain;cultural;38.1625;-2.26597
874;;Spain;cultural;38.14786;-2.31858
874;;Spain;cultural;38.14647;-2.32136
874;;Spain;cultural;38.121;-2.41703
874;;Spain;cultural;38.15594;-2.37908
874;;Spain;cultural;38.11025;-2.42908
116;Djenné;Mali;cultural;13.9;-4.55
1342;Radhanagari Wildlife Sanctuary;India;natural;16.384;73.956
1315;Shushtar Historical Hydraulic System;Iran;cultural;32.053723;48.848687
502;;Philippines;cultural;17.57472;120.38694
1220;Bahá'í World Centre buildings;Israel;cultural;32.81378;34.98655
529;San José de Chiquitos;Bolivia;cultural;-17.85;-60.75
1229;Citadel of Salah Ed-Din;Syria;cultural;35.595833;36.057222
940;Historic Inner City of Paramaribo;Suriname;cultural;5.826;-55.15387
940;Historic Inner City of Paramaribo;Suriname;cultural;5.826;-55.15387
120;Sagarmatha National Park;Nepal;natural;27.891069;86.693033
875;Mausoleum of Centcelles;Spain;cultural;41.155781;1.226134
669;Iglesias;Spain;cultural;42.297777777778;-3.99
988;Catalan Romanesque Churches of the Vall de Boí;Spain;cultural;42.50472222;0.80361111
669;Church of San Salvador de Priesca;Spain;cultural;43.48516667;-5.35869444
664;Cornalvo Dam;Spain;cultural;38.988546;-6.191107
874;Cova Fosca;Spain;cultural;38.80119444;-0.16583333
312;Cámara Santa;Spain;cultural;43.36222222;-5.84288056
310;Cueva de Hornos de la Peña;Spain;cultural;43.2611;-4.02972
761;Kunta Kinteh Island;The Gambia;cultural;13.31753;-16.36144
692;Odzala National Park;Republic of the Congo;natural;0.8;14.9
63;Virunga National Park;Democratic Republic of the Congo;natural;-0.5;29.5
1348;Refade;Syria;cultural;36.29277778;36.98944444
1348;Ruweiha;Syria;cultural;35.73944444;36.69527778
1021;Tsodilo;Botswana;cultural;-18.771666666667;21.754166666667
1073;Zuma;Sudan;cultural;18.36666667;31.75
185;Aldabra;Seychelles;natural;-9.4163888888889;46.416388888889
26;Gorée;Senegal;cultural;14.666944444444;-17.398333333333
677;Santa Maria Church;Philippines;cultural;17.36642;120.48305
199;Selous Game Reserve;Tanzania;natural;-9.0;37.4
199;Selous Game Reserve;Tanzania;natural;-9.0;37.4
144;Songo Mnara;Tanzania;cultural;-9.0394227777778;39.551702222222
1648;Kong mosque;Ivory Coast;cultural;9.1491987;-4.6094513
855;Béguinage of Hoogstraten;Belgium;cultural;51.40306;4.76417
943;St. Rumbold's Cathedral;Belgium;cultural;51.028888888889;4.4783333333333
1495;Ōura Church;Japan;cultural;32.734166666667;129.87027777778
1574;Iriomote Island;Japan;natural;24.34;123.81
870;Tōdai-ji Temple;Japan;cultural;34.689166666667;135.83972222222
1362;Hahajima;Japan;natural;26.65;142.16666666667
761;Portuguese Chapel of Albreda;The Gambia;cultural;13.33350833;-16.38529913
761;Ruins of San Domingo;The Gambia;cultural;13.33638889;-16.37947222
30;Warsaw Old Town;Poland;cultural;52.249722222222;21.012222222222
30;Warsaw Old Town;Poland;cultural;52.249722222222;21.012222222222
1073;El-Kurru;Sudan;cultural;18.409230555556;31.771002777778
1073;Nuri;Sudan;cultural;18.5667;31.9167
774;Laponian National Park;Sweden;mixto;67.33333;17.58333
712;Villa Barbaro;Italy;cultural;45.811944;11.976389
1133;réserve naturelle Sasso Fratino;Italy;natural;43.8493;11.814
712;Villa Foscari;Italy;cultural;45.436667;12.201667
175;Villa La Magia;Italy;cultural;43.85166667;10.9725
158;Head-Smashed-In Buffalo Jump;Canada;cultural;49.7494;-113.625
72;Kluane National Park and Reserve;Canada;natural;60.453611111111;-137.82916666667
72;Kluane National Park and Reserve;Canada;natural;61.197583333333;-140.99197222222
456;Church of Prophet Elijah;Greece;cultural;40.640916666667;22.948583333333
456;Church of Hosios David;Greece;cultural;40.641805555556;22.952277777778
352;Rock carvings at Alta;Norway;cultural;69.946944444444;23.187777777778
1257;Zahamena National Park;Madagascar;natural;-17.612194444444;48.779194444444
1257;Zahamena National Park;Madagascar;natural;-17.6122;48.7792
320;Casa Batlló;Spain;cultural;41.39158;2.16492
685;Doñana National Park;Spain;natural;37.02;-6.44
380;Garajonay National Park;Spain;natural;28.12625;-17.23722222
383;Reales Alcázares;Spain;cultural;37.384426149067;-5.9911866258535
383;Reales Alcázares;Spain;cultural;37.384426149067;-5.9911866258535
170;Medina of Fez;Morocco;cultural;34.0625;-4.9725
1496;Fallingwater;United States;cultural;39.906388888889;-79.468055555556
259;Great Smoky Mountains National Park;United States;natural;35.611111111111;-83.425
1574;Amami Ōshima;Japan;natural;28.283333333333;129.36666666667
688;Kamigamo Shrine;Japan;cultural;35.060507;135.752752
688;Shimogamo Shrine;Japan;cultural;35.039069;135.773012
1574;Tokunoshima;Japan;natural;27.82;128.93222222222
1574;Tokunoshima;Japan;natural;27.82;128.93222222222
1142;Kumano Hongū Taisha;Japan;cultural;33.840401;135.773553
1142;Niutsuhime Shrine;Japan;cultural;34.262893;135.521848
1142;Kumano Nachi Taisha;Japan;cultural;33.66856835;135.8904934
1484;Kosuge Slip Dock;Japan;cultural;32.726833;129.862472
867;Ir.D.F. Woudagemaal;Netherlands;cultural;52.845833333333;5.6788888888889
968;Southern Öland cultural landscape;Sweden;cultural;56.466667;16.55
89;Islamic Cairo;Egypt;cultural;30.046;31.2627
86;Memphis and its Necropolis – the Pyramid Fields from Giza to Dahshur;Egypt;cultural;29.976;31.1304
1187;Oravivuori geodetic marker;Finland;cultural;61.926665;25.533666
584;Petäjävesi Old Church;Finland;cultural;62.2501367;25.1839449
1363;VI.1-Emissario;Italy;cultural;45.4183;8.0229
1533;The Venetian Works of defence between 15th and 17th centuries;Italy;cultural;45.703333333333;9.6636111111111
1133;Valle Cervara;Italy;natural;41.82583;13.75334
1650;Portico di Santo Stefano;Italy;cultural;44.4860795;11.3543082
1650;Portici di via Farini;Italy;cultural;44.4911;11.3442
1650;portico di via Santa Caterina;Italy;cultural;44.4914;11.3328
1650;Portico del Pavaglione;Italy;cultural;44.4915695;11.3345392
1510;San Benedicto Island;Mexico;natural;19.3;-110.81666666667
1510;San Benedicto Island;Mexico;natural;19.315556;-110.803611
1510;Clarion Island;Mexico;natural;18.358889;-114.721944
702;Monasteries on the slopes of Popocatépetl;Mexico;cultural;18.93472;-98.89778
1182;San Pedro Mártir Island;Mexico;natural;28.38027778;-112.30694444
1182;San Pedro Mártir Island;Mexico;natural;28.3803;-112.307
541;Vilnius Old Town;Lithuania;cultural;54.683333333333;25.283333333333
801;Central Island;Kenya;natural;3.5;36.05
1424;St. Paraskevi Church, Radruż;Poland;cultural;50.17670149216;23.401607657812
32;Wieliczka Salt Mine;Poland;cultural;49.983053;20.055655
669;Rabanal del Camino;Spain;cultural;42.481111111111;-6.2852777777778
669;Azofra;Spain;cultural;42.423888888889;-2.8008333333333
312;Santa Cristina de Lena;Spain;cultural;43.12733333;-5.81430556
669;Monastery of Leyre;Spain;cultural;42.635278;-1.171667
669;Sobrado Abbey;Spain;cultural;43.038333333333;-8.0225
803;Las Médulas;Spain;cultural;42.458699;-6.759002
1258;Teide National Park;Spain;natural;28.2647;-16.6181
1258;Teide National Park;Spain;natural;28.276455062377;-16.642669190571
316;Burgos Cathedral;Spain;cultural;42.340805555556;-3.7044722222222
669;Burgos Cathedral;Spain;cultural;42.340805555556;-3.7044722222222
868;Collégiale de Saint-Léonard-de-Noblat;France;cultural;45.83713889;1.48963889
85;Laugerie-Basse;France;cultural;44.950972222222;0.99916666666667
85;Roc de Saint-Cirq Cave;France;cultural;44.926111111111;0.9675
823;Residences of the Royal House of Savoy;Italy;cultural;45.0725;7.68583
823;Residences of the Royal House of Savoy;Italy;cultural;45.0725;7.68583
91;Lateran;Italy;cultural;41.88583333;12.50583333
1024;Caltagirone;Italy;cultural;37.233333333333;14.516666666667
1024;Militello in Val di Catania;Italy;cultural;37.274234;14.793333
1024;Noto;Italy;cultural;36.883333333333;15.083333333333
1024;Palazzolo Acreide;Italy;cultural;37.061666666667;14.902777777778
1427;Etna Park;Italy;natural;37.76527778;15.0
35;Asante Traditional Buildings;Ghana;cultural;6.40111;-1.62583
1363;Zug–Riedmatt;Switzerland;cultural;47.1825;8.491
1363;Zug–Otterswil/Insel Eielen;Switzerland;cultural;47.1267;8.4974
1363;Zürich–Grosse Stadt Kleiner Hafner;Switzerland;cultural;47.3662;8.5441
1363;Zug–Sumpf;Switzerland;cultural;47.1828;8.4783
430;Arbeia;United Kingdom;cultural;55.0044;-1.43111
392;Temple of Apollo Epicurius in Bassae;Greece;cultural;37.429655;21.900387
978;Old town of Corfu;Greece;cultural;39.624658;19.92193
866;Prehistoric Rock-Art Site of the Côa Valley and Siega Verde;Portugal;cultural;40.6975;-6.66111
1736;Western Xia Mausoleums;People's Republic of China;cultural;38.435035;105.987167
813;Humble Administrator's Garden;People's Republic of China;cultural;31.325833333333;120.62444444444
1110;Igreja da Sé;People's Republic of China;cultural;22.19361111;113.54166667
813;Classical Gardens of Suzhou;People's Republic of China;cultural;31.32666667;120.62555556
813;Classical Gardens of Suzhou;People's Republic of China;cultural;31.32666667;120.62555556
1442;Dafosi Grottoes;People's Republic of China;cultural;35.07346;107.99231
1442;Daming Palace;People's Republic of China;cultural;34.291388888889;108.95944444444
1335;Mount Danxia;People's Republic of China;natural;25.031944444444;113.74611111111
438;Jiayuguan;People's Republic of China;cultural;39.80146;98.21618
813;Master of the Nets Garden;People's Republic of China;cultural;31.30016667;120.62969444
1442;Small Wild Goose Pagoda;People's Republic of China;cultural;34.240802777778;108.93735833333
1006;Neolithic flint mines of Spiennes;Belgium;cultural;50.419988888889;3.982575
31;Auschwitz I concentration camp;Poland;cultural;50.027606;19.203088
31;Auschwitz II-Birkenau concentration camp;Poland;cultural;50.0371;19.1752
1496;Taliesin;United States;cultural;43.1415;-90.0709
484;Xanthos;Turkey;cultural;36.357132;29.319255
484;Xanthos;Turkey;cultural;36.362742;29.327378
826;Tino;Italy;cultural;44.027222222222;9.8505555555556
788;Basilica of San Vitale;Italy;cultural;44.420555555556;12.196388888889
730;Crespi d'Adda;Italy;cultural;45.596666666667;9.5361111111111
175;Villa Medicea of Poggio a Caiano;Italy;cultural;43.816448;11.055525
712;Villa Caldogno;Italy;cultural;45.61445;11.5069
1360;Spoil tip nr. 125A;France;cultural;50.341944444444;3.2316666666667
80;Moidrey windmill;France;cultural;48.5852;-1.5061
1351;historic centre of Aguascalientes;Mexico;cultural;21.8806;-102.2967
1182;Balandra;Mexico;natural;24.312222222222;-110.32888888889
1464;Fray Bentos Industrial Landscape;Uruguay;cultural;-33.117778;-58.331667
1349;Grachtengordel;Netherlands;cultural;52.366388888889;4.8858333333333
540;Risbank Fort;Russia;cultural;59.97417;29.7175
540;Petrovskiy Farvater;Russia;cultural;59.958611111111;30.168055555556
540;Kronshtadtskiy Korabel'nyy Farvater;Russia;cultural;60.021388888889;29.471944444444
1035;Cavernas do Peruaçu National Park;Brazil;natural;-15.12251;-44.32434
1414;Bayinbuluke National Natural Reserve;People's Republic of China;natural;42.7981;84.1639
633;Monastery of Saint Euthymius;Russia;cultural;56.433112;40.440246
633;Church of the Intercession on the Nerl;Russia;cultural;56.196269444444;40.561422222222
540;Duderhof Heights;Russia;cultural;59.69777779;30.13361112
19;Fasil Ghebbi;Ethiopia;cultural;12.608055555556;37.469722222222
1182;El Vizcaíno Biosphere Reserve;Mexico;natural;27.792222;-114.227778
415;Monte Albán;Mexico;cultural;17.043888888889;-96.767777777778
537;Daphni Monastery;Greece;cultural;38.013055555556;23.635833333333
1363;Unfriedshausen;Germany;cultural;48.1423;10.9512
1363;Wollmatingen-Langenrain;Germany;cultural;47.6749;9.1204
1363;Wangen-Hinterhorn;Germany;cultural;47.661;8.9389
430;Kastell Trennfurt;Germany;cultural;49.77763;9.17791
34;Fort Batenstein;Ghana;cultural;4.82429;-1.91724
34;Fort Coenraadsburg;Ghana;cultural;5.08474;-1.3508
34;Fort Amsterdam;Ghana;cultural;5.19237;-1.09312
1321;Immeuble Clarté;Switzerland;cultural;46.2;6.1566666666667
884;Sasso Corbaro Castle;Switzerland;cultural;46.18816;9.03002
884;Montebello Castle;Switzerland;cultural;46.19123;9.02676
884;Castelgrande;Switzerland;cultural;46.19304;9.0225
1363;Lobsigensee;Switzerland;cultural;47.030833333333;7.2980555555556
1363;Werd;Switzerland;cultural;47.6556;8.86667
267;Old City of Bern;Switzerland;cultural;46.948055555556;7.4502777777778
1243;Lavaux;Switzerland;cultural;46.491944444444;6.7461111111111
85;Prehistoric Sites and Decorated Caves of the Vézère Valley;France;cultural;45.0575;1.17
165;Abbey of Fontenay;France;cultural;47.639661;4.389327
165;Abbey of Fontenay;France;cultural;47.639661;4.389327
85;Abri du Poisson;France;cultural;44.944166666667;0.99833333333333
598;Moldovița Monastery;Romania;cultural;47.65704854;25.57112932
902;Historic Centre of Sighișoara;Romania;cultural;46.21777778;24.79222222
904;Church of the Archangels Michael and Gabriel;Romania;cultural;47.596982479653;23.764494257119
860;Flower Garden;Czech Republic;cultural;49.29711;17.38079
1078;Jewish cemetery, Třebíč;Czech Republic;cultural;49.220116;15.880217
1215;Cornwall and West Devon Mining Landscape;United Kingdom;cultural;50.136111111111;-5.3836111111111
132;Tarxien Temples;Malta;cultural;35.869166666667;14.511944444444
1504;;Bosnia and Herzegovina;cultural;44.3278;18.8449
1504;Gvozno stećak necropolis;Bosnia and Herzegovina;cultural;43.557632140879;18.438253443413
1504;;Bosnia and Herzegovina;cultural;43.6832;18.7588
1504;Stećak necropolis Čengića Bare;Bosnia and Herzegovina;cultural;43.4208;18.402
1504;;Bosnia and Herzegovina;cultural;44.1041;18.5195
1533;The Venetian Works of defence between 15th and 17th centuries;Croatia;cultural;45.703333333333;9.6636111111111
1533;Defensive System of Zadar;Croatia;cultural;44.111667;15.230278
204;Old Havana;Cuba;cultural;23.135944444444;-82.358333333333
1114;Yinxu;People's Republic of China;cultural;36.1225;114.31861111111
1389;Xanadu;People's Republic of China;cultural;42.358021111111;116.18515888889
449;Zhoukoudian site;People's Republic of China;cultural;39.68896;115.92483
812;Pingyao;People's Republic of China;cultural;37.198888888889;112.17666666667
915;Cradle of Humankind;South Africa;cultural;-25.967231;27.66244
915;Cradle of Humankind;South Africa;cultural;-25.967231;27.66244
1099;Mapungubwe Cultural Landscape;South Africa;cultural;-22.211667;29.387889
1099;Mapungubwe Cultural Landscape;South Africa;cultural;-22.211667;29.387889
1007;De Hoop Nature Reserve;South Africa;natural;-34.4342;20.5478
1536;Kujataa;Greenland;cultural;61.164444444444;-45.598055555556
484;Letoon;Turkey;cultural;36.331944444444;29.289722222222
1622;Arslantepe;Turkey;cultural;38.38194444;38.36111111
456;Church of Agios Dimitrios, Thessaloniki;Greece;cultural;40.638822222222;22.947858333333
456;Paleochristian and Byzantine monuments of Thessaloniki;Greece;cultural;40.6386;22.9478
537;Nea Moni of Chios;Greece;cultural;38.373888888889;26.055555555556
724;Gračanica monastery;Serbia;cultural;42.598333333333;21.193333333333
96;Sopoćani monastery;Serbia;cultural;43.1189;20.4228
275;Jesuit missions among the Guaraní;Brazil;cultural;-27.255280555556;-55.531669444444
275;Jesuit missions among the Guaraní;Brazil;cultural;-27.255280555556;-55.531669444444
544;Kizhi Pogost;Russia;cultural;62.06767;35.22345
958;Walled City of Baku with the Shirvanshahs' Palace and Maiden Tower;Azerbaijan;cultural;40.366666666667;49.833333333333
1306;Coal Mines Historic Site;Australia;cultural;-42.9836;147.716
1306;Coal Mines Historic Site;Australia;cultural;-42.983;147.714
1306;Cockatoo Island;Australia;cultural;-33.8475;151.1725
698;Naracoorte Caves National Park;Australia;natural;-37.036111111111;140.79666666667
698;Naracoorte Caves National Park;Australia;natural;-37.036111111111;140.79666666667
698;Naracoorte Caves National Park;Australia;natural;-37.036111111111;140.79666666667
698;Naracoorte Caves National Park;Australia;natural;-37.036111111111;140.79666666667
698;Naracoorte Caves National Park;Australia;natural;-37.036111111111;140.79666666667
486;Wet Tropics of Queensland;Australia;natural;-17.2;145.8
1306;Darlington Probation Station;Australia;cultural;-42.578;148.073
1306;Darlington Probation Station;Australia;cultural;-42.581944444444;148.06511111111
368;Mount Nothofagus National Park;Australia;natural;-28.3175;152.63361111111
351;Asinou - Panagia Phorbiotissa;Cyprus;cultural;35.0463;32.9725
351;Church of Panayia (The Virgin) Podhithou;Cyprus;cultural;35.0037;32.8961
351;Church of Archangelos Michael (Archangel Michael) in Pedhoulas;Cyprus;cultural;34.9677;32.831
351;Church of Ayia Sotira (of the Transfiguration of the Savior) tou Soteros;Cyprus;cultural;34.921;33.0958
351;Timios Stavros;Cyprus;cultural;34.893;32.9663
351;Church of Stavros (Holy Cross) Ayiasmati;Cyprus;cultural;34.9791;33.047
351;Church of St. Nicholas of the Roof;Cyprus;cultural;34.9773;32.8895
265;Convent of Christ;Portugal;cultural;39.603636;-8.419258
1624;Chankillo;Peru;cultural;-9.55666667;-78.23583333
1656;Old Synagogue (Erfurt);Germany;cultural;50.9786;11.0293
1413;Bergpark Wilhelmshöhe;Germany;cultural;51.3167;9.4
783;Stadtkirche Wittenberg;Germany;cultural;51.8665;12.6448
783;Lutherhaus Wittenberg;Germany;cultural;51.8642;12.6525
1631;Colonia Ulpia Traiana;Germany;cultural;51.6667;6.45
846;Classical Weimar;Germany;cultural;50.98333333;11.31666667
367;Roman amphitheatre of Trier;Germany;cultural;49.7481;6.64889
1239;Siedlung Schillerpark;Germany;cultural;52.56;13.35
868;Abbey Church of Saint Foy;France;cultural;44.599314;2.397873
1569;Maison Carrée;France;cultural;43.838194;4.356111
230;Saint-Savin;France;cultural;46.566111111111;0.86361111111111
230;Saint-Savin;France;cultural;46.566111111111;0.86361111111111
230;Saint-Savin;France;cultural;46.566111111111;0.86361111111111
708;Svetitskhoveli Complex;Georgia;cultural;41.84228;44.72105
1007;Boland Mountain Complex;South Africa;natural;-33.922222222222;19.163888888889
1545;Khomani Cultural Landscape;South Africa;cultural;-25.687611111111;20.374583055556
1533;The Venetian Works of defence between 15th and 17th centuries;Montenegro;cultural;45.703333333333;9.6636111111111
233;Qutb complex;India;cultural;28.524382;77.18543
1342;Eravikulam National Park;India;natural;10.2;77.083
1305;Gaocheng Astronomical Observatory;People's Republic of China;cultural;34.40240556;113.14071111
1135;Gungnae;People's Republic of China;cultural;41.12083333;126.17861111
1113;Fujian Tulou sites;People's Republic of China;cultural;24.6587;116.975
707;Jokhang;People's Republic of China;cultural;29.653055555556;91.132222222222
1280;Chief Roi Mata’s Domain;Vanuatu;cultural;-17.69364;168.23399
1052;Villa Tugendhat;Czech Republic;cultural;49.207222222222;16.615833333333
1577;Budj Bim National Heritage Landscape - Tyrendarra Area;Australia;cultural;-38.193877;141.764301
1577;Budj Bim National Heritage Landscape - Mt Eccles Lake Condah Area;Australia;cultural;-38.079192;141.88132
578;Shark Bay;Australia;natural;-25.92897;113.604655
887;Kuk Swamp;Papua New Guinea;cultural;-5.7825;144.33
1273;wooden churches of the Slovak Carpathians;Slovakia;cultural;49.336111;19.558333
429;New Lanark;United Kingdom;cultural;55.663611111111;-3.7813888888889
355;Iguaçu National Park;Brazil;natural;-25.5;-53.8
355;Iguaçu National Park;Brazil;natural;-25.68333333;-54.43333333
540;Road of Life;Russia;cultural;60.139;31.0551
769;Ubsunur Hollow;Russia;natural;50.338055555556;92.7575
986;University City of Caracas;Venezuela;cultural;10.490833333333;-66.890555555556
658;Coro;Venezuela;cultural;11.395;-69.681583333333
1624;Cerro Mucho Malo;Peru;cultural;-9.51835;-78.18245
351;Painted Churches in the Troödos Region;Cyprus;cultural;34.920277777778;33.095833333333
1263;Ka‘āl Fir‘awn;Yemen;natural;12.438888888889;52.135833333333
390;Škocjan Caves;Slovenia;natural;45.665;13.99472
1544;Heritage district of Yazd;Iran;cultural;31.900555555556;54.369583333333
1668;Robat Karim Stone Caravanserai;Iran;cultural;35.458166666667;50.974555555556
121;Changu Narayan Temple;Nepal;cultural;27.71638889;85.42777778
284;Chitwan National Park;Nepal;natural;27.5;84.333333
1348;Church of Saint Simeon Stylites;Syria;cultural;36.334166666667;36.844166666667
1348;Serjilla;Syria;cultural;35.6925;36.48527778
1348;Dar Qita;Syria;cultural;36.215;36.66638889
1348;Deir Seman;Syria;cultural;36.33333333;36.83333333
191;Djemila;Algeria;cultural;36.32056;5.73667
194;Timgad;Algeria;cultural;35.484237;6.468666
102;Qal'at Bani Hammad;Algeria;cultural;35.813888888889;4.7933333333333
783;Castle Church, Wittenberg;Germany;cultural;51.866388888889;12.637777777778
1156;Dresden Elbe Valley;Germany;cultural;51.0498;13.8132
1133;Jasmund National Park;Germany;natural;54.55;13.65
1368;Fagus Factory;Germany;cultural;51.9837;9.81256
367;Aula Palatina;Germany;cultural;49.753333333333;6.6433333333333
1133;Kellerwald-Edersee National Park;Germany;natural;51.1667;9.0
367;Trier Imperial Baths;Germany;cultural;49.7497;6.64222
1133;Hainich National Park;Germany;natural;51.0967;10.3908
1321;Weissenhof Estate;Germany;cultural;48.8006;9.1775
1631;Castrum Asciburgium;Germany;cultural;51.4317;6.67
1396;Bukit Gua Harimau;Malaysia;cultural;5.1494;100.9807
1685;Tigrovaya Balka Nature Reserve;Tajikistan;natural;37.25;68.5
1461;Kaeng Krachan Forest Complex;Thailand;natural;12.865666666667;99.400166666667
971;Church of Chonchi;Chile;cultural;-42.624119;-73.77367
971;Church of Colo;Chile;cultural;-42.258847;-73.40193
971;Church of Quinchao;Chile;cultural;-42.535078;-73.427214
971;Church of Vilupulli;Chile;cultural;-42.605329;-73.788047
722;Bangaan Rice Terraces;Philippines;cultural;16.963611111111;121.22194444444
289;Lake Malawi National Park;Malawi;natural;-14.033333333333;34.883333333333
37;Byzantine basilica of Dermech;Tunisia;cultural;36.848776;10.325329
1321;Villas La Roche and Jeanneret;France;cultural;48.85186;2.26535
1565;Old City of Hebron;Palestine;cultural;31.525277777778;35.108333333333
1259;Le Morne Brabant;Mauritius;cultural;-20.460555555556;57.313611111111
1259;Le Morne Brabant;Mauritius;cultural;-20.460555555556;57.313611111111
938;Sukur;Nigeria;cultural;10.740555555556;13.571666666667
1257;Andringitra National Park;Madagascar;natural;-22.19496;46.88499
798;Sundarbans Reserved Forest;Bangladesh;natural;22.033333333333;89.516666666667
956;Island of Saint-Louis;Senegal;cultural;16.014796;-16.488762
956;Island of Saint-Louis;Senegal;cultural;16.014796;-16.488762
956;Island of Saint-Louis;Senegal;cultural;16.027780555556;-16.504438888889
956;Island of Saint-Louis;Senegal;cultural;16.027780555556;-16.504438888889
275;Jesuit missions among the Guaraní;Argentina;cultural;-27.255280555556;-55.531669444444
275;Jesuit missions among the Guaraní;Argentina;cultural;-27.255280555556;-55.531669444444
1642;Mount Kumgang;North Korea;mixto;38.656763888889;128.10490277778
983;St. George's historic town;United Kingdom;cultural;32.37947;-64.67789
983;Devonshire Redoubt;United Kingdom;cultural;32.3415;-64.673583333333
983;Southampton Fort;United Kingdom;cultural;32.342111111111;-64.669138888889
983;Landward Fort;United Kingdom;cultural;32.34;-64.67475
983;Seaward Fort;United Kingdom;cultural;32.3405;-64.67175
983;Smith's Fort;United Kingdom;cultural;32.371083333333;-64.658333333333
983;Fort Cunningham;United Kingdom;cultural;32.373277777778;-64.659277777778
983;Fort Popple;United Kingdom;cultural;32.37075;-64.649972222222
983;Paget Fort;United Kingdom;cultural;32.372583333333;-64.658083333333
983;Alexandra Battery;United Kingdom;cultural;32.380833333333;-64.666
983;Gate's Fort;United Kingdom;cultural;32.379555555556;-64.665388888889
983;Musketry Trenches;United Kingdom;cultural;32.376305555556;-64.661
983;Peniston's Redoubt;United Kingdom;cultural;32.375472222222;-64.659444444444
983;Western Redoubt;United Kingdom;cultural;32.382416666667;-64.675777777778
983;Fort George;United Kingdom;cultural;32.379916666667;-64.682777777778
983;Fort Albert;United Kingdom;cultural;32.388027777778;-64.674138888889
983;Ferry Reach Magazine;United Kingdom;cultural;32.362444444444;-64.717138888889
983;Ferry Island Fort;United Kingdom;cultural;32.360333333333;-64.715916666667
983;Burnt Point Fort;United Kingdom;cultural;32.360388888889;-64.717555555556
983;Bermuda Martello Tower;United Kingdom;cultural;32.361777777778;-64.717416666667
983;Coney Island Kiln;United Kingdom;cultural;32.357916666667;-64.71475
373;Stonehenge and Associated Monuments;United Kingdom;cultural;51.17886;-1.82544
373;Avebury and Associated Monuments;United Kingdom;cultural;51.42867;-1.85392
1029;Orcombe Rocks to Chit Rocks, Sidmouth;United Kingdom;natural;50.660277777778;-3.2773333333333
1029;River Sid, Sidmouth to Seaton Hole;United Kingdom;natural;50.687055555556;-3.1265277777778
1029;River Axe, Axmouth to The Cobb, Lyme Regis;United Kingdom;natural;50.705555555556;-2.9898888888889
1029;Lyme Regis to West Bay;United Kingdom;natural;50.72225;-2.8419722222222
1029;Chesil, the Fleet and Portland Coast;United Kingdom;natural;50.631361111111;-2.5696111111111
1029;Portland Harbour Shore;United Kingdom;natural;50.595777777778;-2.4582222222222
1029;Bowleaze Cove to Peveril Point;United Kingdom;natural;50.615055555556;-2.1651388888889
1029;New Swanage to Studland Bay;United Kingdom;natural;50.638222222222;-1.9271111111111
874;;Spain;cultural;42.28464;-0.08311
874;;Spain;cultural;42.28553;-0.08308
874;;Spain;cultural;42.28553;-0.08308
874;;Spain;cultural;42.28817;-0.08053
874;;Spain;cultural;42.28094;-0.07964
874;;Spain;cultural;42.28728;-0.08056
874;;Spain;cultural;42.22481;-0.13919
874;;Spain;cultural;42.22481;-0.13919
874;;Spain;cultural;42.22481;-0.13919
874;;Spain;cultural;42.21694;0.04203
874;;Spain;cultural;42.21694;0.04203
874;;Spain;cultural;42.18692;0.03069
874;;Spain;cultural;42.19764;0.02656
874;;Spain;cultural;42.21047;0.07017
874;;Spain;cultural;42.20678;0.06672
874;;Spain;cultural;42.20814;0.06786
874;;Spain;cultural;42.2095;0.06842
874;;Spain;cultural;42.19878;0.03619
874;;Spain;cultural;42.19881;0.03742
874;Abrigo de Arpán;Spain;cultural;42.19878;0.03619
874;Cueva de la fuente del Trucho;Spain;cultural;42.19425;0.03519
874;;Spain;cultural;42.17533;0.03489
874;;Spain;cultural;42.1995;0.02892
874;;Spain;cultural;42.1995;0.02892
874;;Spain;cultural;42.1995;0.02892
874;;Spain;cultural;42.1995;0.02892
874;Mallata;Spain;cultural;42.21364;0.03611
874;;Spain;cultural;42.21364;0.03611
874;;Spain;cultural;42.2123;0.038
874;;Spain;cultural;42.21233;0.038
874;;Spain;cultural;42.21233;0.038
874;;Spain;cultural;42.21233;0.038
874;;Spain;cultural;42.21233;0.038
874;Forau del Cocho;Spain;cultural;42.059;0.3013
874;;Spain;cultural;42.65075;-0.78944
874;;Spain;cultural;42.26756;-0.40217
874;;Spain;cultural;42.10958;0.28889
874;;Spain;cultural;42.59258;0.17236
874;;Spain;cultural;41.0674;-0.713
874;;Spain;cultural;41.0519;-0.6742
874;;Spain;cultural;41.0673;-0.713
874;;Spain;cultural;41.0673;-0.713
874;Abrigo de los Arqueros Negros;Spain;cultural;41.0521;-0.6743
874;;Spain;cultural;41.0687;-0.7124
874;;Spain;cultural;41.05267;-0.67842
874;;Spain;cultural;41.05219;-0.67808
874;;Spain;cultural;41.05172;-0.67692
874;;Spain;cultural;41.0517;-0.6737
874;;Spain;cultural;41.05231;-0.67428
874;;Spain;cultural;41.05211;-0.67333
874;;Spain;cultural;41.08208;-0.55539
874;;Spain;cultural;41.08633;-0.54331
874;;Spain;cultural;41.08553;-0.54692
874;;Spain;cultural;41.08122;-0.55661
874;;Spain;cultural;41.08078;-0.55722
874;;Spain;cultural;40.38617;-1.39961
874;Abrigo de las Figuras Diversas;Spain;cultural;40.38628;-1.40067
874;Abrigo de Lázaro;Spain;cultural;40.3955;-1.40219
874;Abrigo de los Dos Caballos;Spain;cultural;40.38614;-1.39758
874;;Spain;cultural;40.23731;-1.35128
874;Abrigo de los Toros del Prado del Navazo;Spain;cultural;40.39467;-1.40058
874;Abrigo del Ciervo;Spain;cultural;40.3862;-1.4003
874;Abrigo del Medio Caballo;Spain;cultural;40.38617;-1.39961
874;Abrigo del Tío Campano;Spain;cultural;40.39392;-1.39931
874;;Spain;cultural;40.38678;-1.39769
874;;Spain;cultural;40.25086;-1.35447
874;Abrigo de la Fuente del Cabrerizo;Spain;cultural;40.39567;-1.41539
874;Cueva de Doña Clotilde;Spain;cultural;40.38264;-1.39756
874;;Spain;cultural;40.3875;-1.39769
874;;Spain;cultural;40.94886;-0.66781
874;Cañada de Marco;Spain;cultural;40.9453;-0.6685
874;Val del Charco del Agua Amarga;Spain;cultural;41.06489;-0.01694
874;;Spain;cultural;40.79172;0.204
874;;Spain;cultural;40.33494;-1.34419
874;;Spain;cultural;40.33586;-1.34417
874;;Spain;cultural;40.33406;-1.34444
874;;Spain;cultural;40.73436;-0.36864
874;;Spain;cultural;40.76378;-0.34781
874;;Spain;cultural;40.95922;0.18386
874;;Spain;cultural;40.97431;0.17433
874;;Spain;cultural;40.34267;-1.62419
874;;Spain;cultural;40.80275;0.10281
874;;Spain;cultural;40.7116;-0.4181
874;;Spain;cultural;40.73192;-0.38056
874;;Spain;cultural;40.73108;-0.38286
874;;Spain;cultural;40.73069;-0.38536
874;;Spain;cultural;40.73994;-0.34886
874;;Spain;cultural;41.00961;0.12764
874;;Spain;cultural;41.07231;0.113
874;;Spain;cultural;41.01053;0.12758
874;;Spain;cultural;40.39736;-0.36294
874;;Spain;cultural;40.39733;-0.36236
874;El Cerrao;Spain;cultural;40.88892;-0.73342
1196;Nesvizh Castle;Belarus;cultural;53.222877777778;26.691736111111
724;Gračanica monastery;Kosovo;cultural;42.598333333333;21.193333333333
874;;Spain;cultural;40.89294;-0.73208
874;;Spain;cultural;40.92819;-0.71486
874;Frontón de la Tía Chula;Spain;cultural;40.99681;-0.678
874;Abrigo de la Paridera de Tormón;Spain;cultural;40.2222;-1.3352
874;Abrigo de las Cabras Blancas;Spain;cultural;40.222777777778;-1.3358333333333
874;Abrigo de las Cabras Blancas;Spain;cultural;40.22267;-1.33575
874;Abrigo de la Ceja de Piezarrodilla;Spain;cultural;40.22714;-1.33389
874;Abrigo de la Cerrada del Tío Jorge;Spain;cultural;40.224;-1.3351
529;San Miguel de Velasco;Bolivia;cultural;-16.6986;-60.9681
763;Lednice-Valtice Cultural Landscape;Czech Republic;cultural;48.7758;16.775
859;Holy Trinity Column in Olomouc;Czech Republic;cultural;49.59402;17.250492
822;Tallinn Old Town;Estonia;cultural;59.437222222222;24.745277777778
247;Amber Fort;India;cultural;26.9859;75.8507
944;Nilgiri Mountain Railway;India;cultural;11.344316666667;76.791944444444
944;Darjeeling Himalayan Railway;India;cultural;27.045;88.267222222222
1568;Bishapur;Iran;cultural;29.777778;51.570833
277;Hatra;Iraq;cultural;35.588055555556;42.718333333333
327;Qasr Amra;Jordan;cultural;31.80175;36.587305555556
1107;Incense Route – Desert Cities in the Negev;Israel;cultural;31.0975;34.657777777778
1564;Tr'ondëk-Klondike;Canada;cultural;64.0;-139.0
598;Arbore Church;Romania;cultural;47.73311944;25.93305556
598;Saint John the New Monastery;Romania;cultural;47.64188611;26.26226389
906;Piatra Roșie Dacian fortress;Romania;cultural;45.602264;23.147403
906;Dacian Fortresses of the Orăștie Mountains;Romania;cultural;45.6231;23.3119
597;Horezu monastery;Romania;cultural;45.1686;24.0069
906;Sarmizegetusa Regia;Romania;cultural;45.62277778;23.31027778
94;Parco comunale delle incisioni rupestri di Luine;Italy;cultural;45.888889;10.179444
94;Cemmo National Archaeological Park;Italy;cultural;46.0314518;10.3363291
94;Parco archeologico comunale di Seradina-Bedolina;Italy;cultural;46.033333;10.341389
94;Parco comunale archeologico e minerario di Sellero;Italy;cultural;46.057222;10.341389
94;Parco archeologico comunale di Sonico;Italy;cultural;46.168611;10.355556
726;historical centre of Naples;Italy;cultural;40.83331;14.25
726;District of Villa Manzo, Santa Maria della Consolazione;Italy;cultural;40.81802;14.20558
726;District of Casale and Santo Strato;Italy;cultural;40.80382;14.19208
733;Pallazzo Diamantina;Italy;cultural;44.88498;11.509145
787;Piazza del Mercato;Italy;cultural;40.784;17.2373
787;Quartiere Aja Piccola;Italy;cultural;40.7817;17.2363
787;Quartiere Monti;Italy;cultural;40.7819;17.236
826;Cinque Terre and Portovenere;Italy;cultural;44.10694;9.72917
842;Cilento and Vallo di Diano National Park with the Archeological Sites of Paestum and Velia, and the Certosa di Padula;Italy;cultural;40.28333;15.26667
842;Paestum, Velia, the Certosa di Padula, Mount Cervati and the Vallo di Diano;Italy;cultural;40.28333;15.48333
842;Capo Palinuro, Punta degli Infreschi and the Mount Bulgheria region;Italy;cultural;40.06667;15.43333
842;Punta Licosa and the Mount Stella region;Italy;cultural;40.24806;14.9275
990;Town of Assisi, San Damiano, Eremo delle Carceri, Santuario di Rivotorto and cultural landscape;Italy;cultural;43.07111;12.61472
990;Basilique de Santa Maria degli Angeli et le Palais des Capitaines du Pardon;Italy;cultural;43.05806;12.58028
1133;Selva Moricento;Italy;natural;41.84694;13.70556
1133;Coppo del Morto;Italy;natural;41.86028;13.84667
1133;Cozzo Ferriero;Italy;natural;39.90583;16.10111
1133;Coppo del Principe;Italy;natural;41.7875;13.74417
1133;Val Fondillo;Italy;natural;41.75417;13.88583
1200;Epipolae, Achradina, Tyche and Neapolis, Euryalus Castle, Dionysian fortiﬁcations and the Scala Greca area;Italy;cultural;37.09583;15.225
1237;The Dolomites;Italy;natural;46.61306;12.16306
1237;Pelmo-Croda da Lago;Italy;natural;46.44778;12.11361
1237;Dolomiti Friulane e d'Oltre Piave;Italy;natural;46.34667;12.50361
1237;Dolomiti Settentrionali Cadorine, Sett Sass;Italy;natural;46.34667;12.50361
1237;Pale di San Martino San Lucano – Dolomiti Bellunesi – Vette Feltrine;Italy;natural;46.2475;11.99417
1237;Puez-Odle / Puez-Geisler / Pöz-Odles;Italy;natural;46.60361;11.80667
1237;Sciliar-Catinaccio;Italy;natural;46.45444;11.60278
1318;The Gastaldaga area and the Episcopal complex;Italy;cultural;46.09417;13.43306
1487;Royal Palace and Palatine Chapel;Italy;cultural;38.11083;13.35306
1571;Le Colline del Prosecco di Conegliano e Valdobbiadene;Italy;cultural;45.953;12.2261
171;Shalamar Gardens;Pakistan;cultural;31.585833333333;74.381944444444
1442;Suyab;Kyrgyzstan;cultural;42.8;75.2667
1133;Paklenica;Croatia;natural;44.44359;15.29022
1133;Paklenica;Croatia;natural;44.44359;15.29022
1133;Paklenica;Croatia;natural;44.36666667;15.43333333
1133;Paklenica;Croatia;natural;44.36666667;15.43333333
591;Thungyai Naresuan Wildlife Sanctuary;Thailand;natural;15.333333333333;98.916666666667
574;Sukhothai Historical Park;Thailand;cultural;17.021111111111;99.703611111111
1141;Sarazm;Tajikistan;cultural;39.516666666667;67.566666666667
1141;Sarazm;Tajikistan;cultural;39.516666666667;67.566666666667
710;Gelati Monastery;Georgia;cultural;42.294722222222;42.768055555556
132;Skorba Temples;Malta;cultural;35.920833333333;14.377777777778
977;Gochang, Hwasun and Ganghwa Dolmen Sites;South Korea;cultural;34.96667;126.92917
1264;Jeju Volcanic Island and Lava Tubes;South Korea;natural;33.36138889;126.5325
1264;Jeju Volcanic Island and Lava Tubes;South Korea;natural;33.36138889;126.5325
565;Casbah of Algiers;Algeria;cultural;36.78333;3.06028
188;M'zab;Algeria;cultural;32.487222222222;3.6813888888889
201;Polonnaruwa;Sri Lanka;cultural;7.9333333333333;81.0
1203;Central Highlands of Sri Lanka;Sri Lanka;natural;7.45245;80.8021
816;Changdeokgung;South Korea;cultural;37.579444444444;126.99166666667
817;Hwaseong Fortress;South Korea;cultural;37.280733333333;127.01020277778
1319;Tonggurung;South Korea;cultural;37.622608;127.132075
1562;Beopjusa;South Korea;cultural;36.5415;127.833
976;Namsan;South Korea;cultural;35.76805556;129.22555556
738;Jongmyo;South Korea;cultural;37.574722222222;126.99361111111
737;Haeinsa Temple Janggyeong Panjeon, the Depositories for the Tripitaka Koreana Woodblocks;South Korea;cultural;35.8;128.1
1562;Tongdosa;South Korea;cultural;35.488055555556;129.06472222222
976;Gyeongju Historic Areas;South Korea;cultural;35.78888889;129.22666667
1324;Yangdong Folk Village;South Korea;cultural;36.001111111111;129.25333333333
1319;Royal Tombs of the Joseon Dynasty;South Korea;cultural;37.19722222;128.45277778
1319;Royal Tombs of the Joseon Dynasty;South Korea;cultural;37.19722222;128.45277778
1192;Qal’at al Bahrain;Bahrain;cultural;26.233611111111;50.520555555556
1192;Qal’at al Bahrain;Bahrain;cultural;26.233611111111;50.520555555556
1192;Qal’at al Bahrain;Bahrain;cultural;26.233611111111;50.520555555556
1094;Purnululu National Park;Australia;natural;-17.448789;128.546055
368;Iluka Nature Reserve;Australia;natural;-29.4039;153.362
1278;Koryo Songgyungwan University;North Korea;cultural;37.98111111;126.56611111
1091;Tomb of King Tongmyong;North Korea;cultural;38.895327777778;125.92303611111
275;Nuestra Señora de Loreto;Argentina;cultural;-27.335555555556;-55.517222222222
291;Nuestra Señora de Loreto;Argentina;cultural;-27.335555555556;-55.517222222222
330;Chavin de Huantar;Peru;cultural;-9.592775;-77.178452777778
250;Great Living Chola Temples;India;cultural;10.783055555556;79.1325
250;Great Living Chola Temples;India;cultural;10.783055555556;79.1325
1595;Port Royal;Jamaica;cultural;17.9375;-76.841388888889
742;Santa Cruz de Mompós;Colombia;cultural;9.2394444444444;-74.425
430;Fort site and civil settlement of Miltenberg-Altstadt southern part;Germany;cultural;49.7085739;9.2330243
430;Fort site and civil settlement of Miltenberg-Altstadt north-eastern part;Germany;cultural;49.7078094;9.2634713
430;Fort site and civil settlement of Walldürn;Germany;cultural;49.5790437;9.3844711
430;Fort site and civil settlement of Osterburken;Germany;cultural;49.4298763;9.4257261
430;Fort site and civil settlement of Jagsthausen;Germany;cultural;49.3094077;9.4694986
430;Watchtowers WP 9/14 to 9/32 including the fort site of Westernbach;Germany;cultural;49.2354681;9.5067011
430;Fort site and civil settlement of Mainhardt;Germany;cultural;49.0808879;9.5570856
430;Murrhardt civil settlement northern part;Germany;cultural;48.976682;9.5837091
430;Fort site and civil settlement of Welheim-West;Germany;cultural;48.8719552;9.6428856
430;Fort site and civil settlement of Welzheim-Ost;Germany;cultural;48.8717374;9.6335017
430;Fort site and civil settlement of Schirenhof;Germany;cultural;48.7861513;9.7769199
430;Fort site and civil settlement of Aalen;Germany;cultural;48.8357628;10.085505
430;Fort site and civil settlement of Reinau-Buch;Germany;cultural;48.909552;10.1464099
430;Watchtowers WP 12/86 to 13/5 including fort site and civil settlement of Halheim;Germany;cultural;48.9829428;10.2852053
430;Fort site and civil settlement of Ruffenhofen;Germany;cultural;49.0461336;10.4819185
430;Watchtowers WP 13/16 to 13/36 including fort site and civil setllement of Dambach;Germany;cultural;49.1020325;10.5778303
430;Fort site and civil settlement of Unterschwaningen;Germany;cultural;49.0695173;10.6223396
430;Fort site and civil settlement of Gnotzheim;Germany;cultural;49.0571302;10.7050604
430;fort site and civil settlement of Theilenhofen;Germany;cultural;49.087705;10.8413544
430;Fort site and civil settlement of Ellingen north of Road 2389;Germany;cultural;49.0634736;10.9884531
430;Fort site and civil setllement of Weissenburg eastern part;Germany;cultural;49.0307436;10.9624071
430;Fort site of Oberhochstatt;Germany;cultural;49.0344216;11.0518179
430;Fort site of Burgsalach;Germany;cultural;49.0191518;11.0765847
430;Fort site and civil settlement of Boehming;Germany;cultural;48.945763;11.3605177
430;Fort site and civil settlement of Pfünz;Germany;cultural;48.8841435;11.2638405
515;Altenmünster of Lorsch;Germany;cultural;49.65714;8.576
1553;Crooked Wall Area 4;Germany;cultural;54.455638888889;9.3468333333333
1553;Main Wall Areas 2 to 3;Germany;cultural;54.47825;9.4890555555556
1553;Main Wall Area 1;Germany;cultural;54.48725;9.5029444444445
1553;Crooked Wall Areas 3 to 4;Germany;cultural;54.464972222222;9.3865833333333
1553;Crooked Wall Areas 1 to 2 Main Wall Areas 4 to 5;Germany;cultural;54.461944444444;9.4541111111111
1553;Arched Wall;Germany;cultural;54.494305555556;9.5189722222222
1553;Connection Wall Area 8;Germany;cultural;54.49325;9.5178611111111
1553;Connection Wall Area 9 North Wall Area 4 Arched Wall;Germany;cultural;54.493722222222;9.5119722222222
1553;North Wall Areas 1 to 2;Germany;cultural;54.499166666667;9.5235
1553;Kovirke Area 1;Germany;cultural;54.463027777778;9.4781944444444
1553;Connection Wall Areas 5 to 7;Germany;cultural;54.491805555556;9.53525
1553;Connection Wall Area 3;Germany;cultural;54.490555555556;9.5528888888889
1553;Kovirke Area 6;Germany;cultural;54.473666666667;9.5594722222222
1553;Kovirke Area 7;Germany;cultural;54.474333333333;9.5662777777778
1553;Kovirke Area 2;Germany;cultural;54.463916666667;9.48475
1553;Kovirke Area 3 to 5;Germany;cultural;54.468166666667;9.5177222222222
1553;Offshore Work;Germany;cultural;54.514888888889;9.6413611111111
1553;East Wall Area 1A to 1C;Germany;cultural;54.480916666667;9.7469722222222
1553;Kovirke Area 8;Germany;cultural;54.475027777778;9.5712777777778
729;Masters' Houses;Germany;cultural;51.84336;12.22153
729;Laubenganghaus, Peterholzstraße 40, Dessau;Germany;cultural;51.803;12.2435
729;Laubenganghaus, Peterholzstraße 48, Dessau;Germany;cultural;51.803;12.2453
729;Laubenganghaus, Peterholzstraße 56, Dessau;Germany;cultural;51.8029;12.2471
729;Laubenganghaus, Mittelbreite 6, Dessau;Germany;cultural;51.801;12.2425
1527;Ach Valley;Germany;cultural;48.38778;9.76556
1527;Lone Valley;Germany;cultural;48.55028;10.17556
535;Old and new towns of Quedlinburg;Germany;cultural;51.78889;11.14278
272;Marienkirche, Rathaus, Marktplatz;Germany;cultural;53.86778;10.68444
272;Burgkloster - Aegidienstrasse;Germany;cultural;53.86667;10.69167
272;Petrikirche - Dom zu Lübeck;Germany;cultural;53.8625;10.68333
1067;historic center of Stralsund;Germany;cultural;54.3025;13.08528
1067;historic center of Wismar;Germany;cultural;53.88333;11.46667
623;Mines of Rammelsberg and Historic Town of Goslar;Germany;cultural;51.89;10.42056
169;Würzburg Residence with the Court Gardens and Residence Square;Germany;cultural;49.79278;9.93889
169;Würzburg Residence with the Court Gardens and Residence Square;Germany;cultural;49.79278;9.93889
169;Rosenbach Park;Germany;cultural;49.79417;9.93839
1478;Freiberg Mining Landscape;Germany;cultural;50.9183;13.3445
1478;Annaberg-Frohnau Mining Landscape;Germany;cultural;50.5814;12.9926
1478;Schneeberg Mining Landscape;Germany;cultural;50.5957;12.6442
1478;Uranium Mining Landscape;Germany;cultural;50.6334;12.6857
1716;Ecbatana;Iran;cultural;34.8065;48.516247
1716;Ecbatana;Iran;cultural;34.8065;48.516247
208;Buddhas of Bamiyan;Afghanistan;cultural;34.832041666667;67.826802777778
1108;Tel Hazor;Israel;cultural;33.018333333333;35.569166666667
1511;M'banza-Kongo;Angola;cultural;-6.2666666666667;14.25
790;Panamá Viejo;Panama;cultural;9.0068286;-79.485149
1138;Coiba;Panama;natural;7.48;-81.79
1537;Qalhat;Oman;cultural;22.699996;59.369896
718;Okapi Wildlife Reserve;Democratic Republic of the Congo;natural;2.0;28.5
137;Kahuzi-Biéga National Park;Democratic Republic of the Congo;natural;-2.3148055555556;28.758666666667
1310;Cidade Velha;Cape Verde;cultural;14.916666666667;-23.604166666667
574;Kamphaeng Phet Historical Park;Thailand;cultural;16.484;99.524
950;Ambohimanga;Madagascar;cultural;-18.759167;47.562778
682;Bwindi Impenetrable National Park;Uganda;natural;-1.05;29.71666667
1073;Jebel Barkal;Sudan;cultural;18.5368;31.8276
1324;Byeongsan Seowon;South Korea;cultural;36.54028;128.55278
1498;Byeongsan Seowon;South Korea;cultural;36.54028;128.55278
971;Church of Chelín;Chile;cultural;-42.6012;-73.5161
971;Church of Our Lady of Sorrows;Chile;cultural;-42.379076;-73.647582
749;W National Park;Benin;natural;12.350047268473;2.3549837832074
749;W National Park;Burkina Faso;natural;12.350047268473;2.3549837832074
1631;Colonia Ulpia Traiana;Ancient Rome;cultural;51.6667;6.45
749;W National Park;Niger;natural;12.350047268473;2.3549837832074
153;Niokolo-Koba National Park;Senegal;natural;13.074166666667;-12.722222222222
25;Djoudj National Bird Sanctuary;Senegal;natural;16.358494949351;-16.274101560794
381;Church of Sancti Spiritus;Spain;cultural;40.965354;-5.659242
378;Collegiate church of Santa María;Spain;cultural;41.354056;-1.645056
669;Church of San Miguel, Estella;Spain;cultural;42.670913888889;-2.028475
669;Castle of Burgos;Spain;cultural;42.3428;-3.70722
663;Shirakami-Sanchi;Japan;natural;40.47;140.13
663;Shirakami-Sanchi;Japan;natural;40.450277777778;140.19861111111
972;Nakijin Castle;Japan;cultural;26.690833333333;127.93027777778
1418;Lake Kawaguchi;Japan;cultural;35.515;138.75666666667
688;Ujigami Shrine;Japan;cultural;34.892091;135.811456
688;Ryōan-ji Temple;Japan;cultural;35.034444444444;135.71833333333
943;Belfry of Eeklo;Belgium;cultural;51.184669;3.5663
943;Belfry of Binche;Belgium;cultural;50.41065;4.165678
1631;Castrum Asciburgium;Ancient Rome;cultural;51.4317;6.67
702;Convent of Saint Mathew the Apostle, Atlatlahucan;Mexico;cultural;18.9347;-98.8978
702;convento de Santiago Apóstol;Mexico;cultural;18.8769;-98.7756
702;former convent of Saint John the Baptist;Mexico;cultural;18.8919;-98.7294
702;former convent of Saint John the Baptist;Mexico;cultural;18.9556;-98.9811
702;former convent of Saint William;Mexico;cultural;18.99;-98.9183
702;former convent of Saint John the Baptist;Mexico;cultural;18.8842;-98.8631
702;former convent of the Immaculate Conception;Mexico;cultural;18.7864;-98.7681
702;former convent of the Assumption of Our Lady;Mexico;cultural;18.8911;-98.5725
791;Pre-Hispanic Town of Uxmal;Mexico;cultural;20.3617;-89.7703
1079;Santiago de Jalpan mission;Mexico;cultural;21.2044;-99.4641
1650;porticoes of Bologna;Italy;cultural;44.491388888889;11.332777777778
1133;réserve naturelle Foresta Umbra;Italy;natural;41.820527777778;16.011944444444
1318;Temple of Clitumnus;Italy;cultural;42.84224;12.756929
1424;Saint Paraskevi church in Kwiatoń;Poland;cultural;49.5009;21.1737
804;Hospital de Sant Pau;Spain;cultural;41.412777777778;2.1744444444444
804;Hospital de Sant Pau;Spain;cultural;41.412777777778;2.1744444444444
